id,name,country,city,state,extended_address,url,display_location,score,postal_code,address,timezone,slug,event_count,lat,lon
31784,Jockey Club del Peru,Peru,Lima,Lim,"Lima, Peru",https://seatgeek.com/venues/jockey-club-del-peru/tickets/,"Lima, Peru",0.0,45801,El Derby,America/Lima,jockey-club-del-peru,1,-12.0982,-76.9745
29937,Allianz Parque,Brazil,Sao Paulo,,"Sao Paulo, Brazil",https://seatgeek.com/venues/allianz-parque-1/tickets/,"Sao Paulo, Brazil",0.0,05005-000,,America/Sao_Paulo,allianz-parque-1,3,-23.5275,-46.6785
9869,Estadio Nacional,Chile,Santiago,RM,"Santiago, Chile",https://seatgeek.com/venues/estadio-nacional/tickets/,"Santiago, Chile",0.0,7780464,,America/Santiago,estadio-nacional,3,-33.4642,-70.6109
7870,Coliseo de Puerto Rico,Puerto Rico,San Juan,PR,"San Juan, Puerto Rico",https://seatgeek.com/venues/coliseo-de-puerto-rico/tickets/,"San Juan, Puerto Rico",0.54185,00918,500 Arterial B St.,America/Puerto_Rico,coliseo-de-puerto-rico,6,18.2016,-66.5813
2983,Rogers Arena,Canada,Vancouver,BC,"Vancouver, Canada",https://seatgeek.com/venues/rogers-arena/tickets/,"Vancouver, Canada",0.76409,V6B 6G1,800 Griffiths Way,America/Vancouver,rogers-arena,62,49.2782,-123.108
76071,Lex Nightclub,US,Reno,NV,"Reno, NV 89595",https://seatgeek.com/venues/lex-nightclub/tickets/,"Reno, NV",0.0,89595,2500 East Second Street,America/Los_Angeles,lex-nightclub,2,39.5235,-119.78
7336,Exchange LA,US,Los Angeles,CA,"Los Angeles, CA 90014",https://seatgeek.com/venues/exchange-la/tickets/,"Los Angeles, CA",0.47449,90014,618 South Spring Street,America/Los_Angeles,exchange-la,10,34.0453,-118.251
2176,Country Jam USA,US,Eau Claire,WI,"Eau Claire, WI 54701",https://seatgeek.com/venues/country-jam-usa/tickets/,"Eau Claire, WI",0.38654,54701,3633 Crescent Ave.,America/Chicago,country-jam-usa,4,44.7853,-91.5929
60477,Denny Sanford Premier Center,US,Sioux Falls,SD,"Sioux Falls, SD 57104",https://seatgeek.com/venues/denny-sanford-premier-center/tickets/,"Sioux Falls, SD",0.74597,57104,1201 North West Avenue,America/Chicago,denny-sanford-premier-center,10,43.5635,-96.747
1568,INTRUST Bank Arena,US,Wichita,KS,"Wichita, KS 67202",https://seatgeek.com/venues/intrust-bank-arena/tickets/,"Wichita, KS",0.68867,67202,500 East Waterman Street,America/Chicago,intrust-bank-arena,23,37.6824,-97.3321
3703,Fiddler's Green Amphitheatre,US,Englewood,CO,"Englewood, CO 80111",https://seatgeek.com/venues/fiddler-s-green-amphitheatre/tickets/,"Englewood, CO",0.7358,80111,6350 Greenwood Plaza Blvd,America/Denver,fiddler-s-green-amphitheatre,14,39.6008,-104.894
77,USANA Amphitheatre,US,West Valley City,UT,"West Valley City, UT 84118",https://seatgeek.com/venues/usana-amphitheatre/tickets/,"West Valley City, UT",0.64047,84118,5150 South 6055 West,America/Denver,usana-amphitheatre,17,40.6577,-112.035
188,EnergySolutions Arena,US,Salt Lake City,UT,"Salt Lake City, UT 84101",https://seatgeek.com/venues/energysolutions-arena/tickets/,"Salt Lake City, UT",0.70032,84101,301 West South Temple,America/Denver,energysolutions-arena,42,40.7693,-111.9
698,Enmax Centre,Canada,Lethbridge,AB,"Lethbridge, Canada",https://seatgeek.com/venues/enmax-centre/tickets/,"Lethbridge, Canada",0.59354,T1K 1N2,2510 Scenic Dr.,America/Edmonton,enmax-centre,2,49.6688,-112.805
62,PNC Music Pavilion,US,Charlotte,NC,"Charlotte, NC 28262",https://seatgeek.com/venues/pnc-music-pavilion/tickets/,"Charlotte, NC",0.75922,28262,707 Pavilion Blvd.,America/New_York,pnc-music-pavilion,14,35.3274,-80.7107
61,Walnut Creek Amphitheatre,US,Raleigh,NC,"Raleigh, NC 27610",https://seatgeek.com/venues/walnut-creek-amphitheatre/tickets/,"Raleigh, NC",0.73789,27610,3801 Rock Quarry Road,America/New_York,walnut-creek-amphitheatre,15,35.7456,-78.584
72,Farm Bureau Live at Virginia Beach,US,Virginia Beach,VA,"Virginia Beach, VA 23456",https://seatgeek.com/venues/farm-bureau-live-at-virginia-beach/tickets/,"Virginia Beach, VA",0.7224,23456,3550 Cellar Door Way,America/New_York,farm-bureau-live-at-virginia-beach,13,36.7687,-76.102
33,Gillette Stadium,US,Foxborough,MA,"Foxborough, MA 02035",https://seatgeek.com/venues/gillette-stadium/tickets/,"Foxborough, MA",0.89528,02035,1 Patriot Place,America/New_York,gillette-stadium,27,42.0906,-71.2674
46,BC Place Stadium,Canada,Vancouver,BC,"Vancouver, Canada",https://seatgeek.com/venues/bc-place-stadium/tickets/,"Vancouver, Canada",0.74344,V6B 4Y8,777 Pacific Boulevard,America/Vancouver,bc-place-stadium,21,49.2767,-123.112
163,Rexall Place,Canada,Edmonton,AB,"Edmonton, Canada",https://seatgeek.com/venues/rexall-place/tickets/,"Edmonton, Canada",0.74698,T5B 4M9,7424 118 Ave NW,America/Edmonton,rexall-place,65,53.5704,-113.456
339,CenturyLink Field,US,Seattle,WA,"Seattle, WA 98134",https://seatgeek.com/venues/centurylink-field/tickets/,"Seattle, WA",0.88084,98134,800 Occidental Avenue South,America/Los_Angeles,centurylink-field,19,47.5951,-122.332
58670,Levi's Stadium,US,Santa Clara,CA,"Santa Clara, CA 95054",https://seatgeek.com/venues/levi-s-stadium/tickets/,"Santa Clara, CA",0.97121,95054,4900 Centennial Blvd,America/Los_Angeles,levi-s-stadium,20,37.4032,-121.97
258,Gila River Arena,US,Glendale,AZ,"Glendale, AZ 85305",https://seatgeek.com/venues/gila-river-arena/tickets/,"Glendale, AZ",0.77171,85305,9400 W. Maryland Ave.,America/Phoenix,gila-river-arena,51,33.5315,-112.261
194,Lake Tahoe Outdoor Arena at Harveys,US,Stateline,NV,"Stateline, NV 89449",https://seatgeek.com/venues/lake-tahoe-outdoor-arena-at-harveys-1/tickets/,"Stateline, NV",0.75838,89449,18 Highway 50,America/Los_Angeles,lake-tahoe-outdoor-arena-at-harveys-1,8,38.96,-119.942
336,Taco Bell Arena,US,Boise,ID,"Boise, ID 83725",https://seatgeek.com/venues/taco-bell-arena/tickets/,"Boise, ID",0.61137,83725,1910 University Drive,America/Boise,taco-bell-arena,15,43.6033,-116.199
3062,Amphitheater Northwest,US,Ridgefield,WA,"Ridgefield, WA 98642",https://seatgeek.com/venues/amphitheater-northwest/tickets/,"Ridgefield, WA",0.68383,98642,17200 NE Delfel Road,America/Los_Angeles,amphitheater-northwest,7,45.7471,-122.663
48,Gorge Amphitheatre,US,George,WA,"George, WA 98848",https://seatgeek.com/venues/gorge-amphitheatre/tickets/,"George, WA",0.75107,98848,754 Silica Road NW,America/Los_Angeles,gorge-amphitheatre,15,47.079,-119.856
969,Los Angeles County Fair,US,Pomona,CA,"Pomona, CA 91768",https://seatgeek.com/venues/los-angeles-county-fair/tickets/,"Pomona, CA",0.57503,91768,1101 W. McKinley Ave.,America/Los_Angeles,los-angeles-county-fair,16,34.081,-117.765
353,The Colosseum at Caesars Windsor,Canada,Windsor,ON,"Windsor, Canada",https://seatgeek.com/venues/the-colosseum-at-caesars-windsor/tickets/,"Windsor, Canada",0.57826,N9A 7H7,377 Riverside Drive East,America/Toronto,the-colosseum-at-caesars-windsor,16,42.321,-83.0341
301,Casino Rama,Canada,Rama,ON,"Rama, Canada",https://seatgeek.com/venues/casino-rama/tickets/,"Rama, Canada",0.54879,L0K 1T0,5899 Rama Road,America/Toronto,casino-rama,32,44.6482,-79.3484
8820,Borgata Event Center,US,Atlantic City,NJ,"Atlantic City, NJ 08401",https://seatgeek.com/venues/borgata-event-center/tickets/,"Atlantic City, NJ",0.6704,08401,1 Borgata Way,America/New_York,borgata-event-center,53,39.378,-74.4339
71,Bethel Woods Center For The Arts,US,Bethel,NY,"Bethel, NY 12720",https://seatgeek.com/venues/bethel-woods-center-for-the-arts/tickets/,"Bethel, NY",0.70684,12720,200 Hurd Road,America/New_York,bethel-woods-center-for-the-arts,26,41.7006,-74.8821
5040,Meadow Brook Music Festival,US,Rochester Hills,MI,"Rochester Hills, MI 48309",https://seatgeek.com/venues/meadow-brook-music-festival/tickets/,"Rochester Hills, MI",0.64098,48309,3554 Walton Blvd,America/New_York,meadow-brook-music-festival,15,42.6784,-83.2101
293,Chastain Park Amphitheatre,US,Atlanta,GA,"Atlanta, GA 30342",https://seatgeek.com/venues/chastain-park-amphitheatre/tickets/,"Atlanta, GA",0.67166,30342,4469 Stella Dr NW,America/New_York,chastain-park-amphitheatre,28,33.8766,-84.396
583,Kennedy Center Concert Hall,US,Washington,DC,"Washington, DC 20566",https://seatgeek.com/venues/kennedy-center-concert-hall/tickets/,"Washington, DC",0.56448,20566,2700 F St. NW,America/New_York,kennedy-center-concert-hall,7,38.8961,-77.0549
31092,Kucukciftlik Park,Turkey,Macka,Istanbul,"Macka, Turkey",https://seatgeek.com/venues/kucukciftlik-park/tickets/,"Macka, Turkey",0.0,80680,Kadirgalar Yokusu No.5,Europe/Istanbul,kucukciftlik-park,1,40.8103,39.6138
591,The Colosseum At Caesars Palace,US,Las Vegas,NV,"Las Vegas, NV 89109",https://seatgeek.com/venues/the-colosseum-at-caesars-palace/tickets/,"Las Vegas, NV",0.6643,89109,3570 Las Vegas Blvd South,America/Los_Angeles,the-colosseum-at-caesars-palace,90,36.1172,-115.173
48039,Theatre de Plein Air - Parc Expo,France,Colmar,C1,"Colmar, France",https://seatgeek.com/venues/theatre-de-plein-air-parc-expo/tickets/,"Colmar, France",0.0,68000,1 Avenue de la Foire aux Vins,Europe/Paris,theatre-de-plein-air-parc-expo,1,48.0948,7.35644
3179,Randalls Island,US,New York,NY,"New York, NY 10035",https://seatgeek.com/venues/randalls-island/tickets/,"New York, NY",0.7621,10035,1 Randalls Island Park,America/New_York,randalls-island,8,40.7932,-73.9213
945,San Manuel Amphitheater,US,San Bernardino,CA,"San Bernardino, CA 92407",https://seatgeek.com/venues/san-manuel-amphitheater/tickets/,"San Bernardino, CA",0.71786,92407,2575 Glen Helen Parkway,America/Los_Angeles,san-manuel-amphitheater,12,34.2104,-117.408
3243,Xs The Nightclub At Encore,US,Las Vegas,NV,"Las Vegas, NV 89109",https://seatgeek.com/venues/xs-the-nightclub-at-encore/tickets/,"Las Vegas, NV",0.52725,89109,3131 Las Vegas Blvd. South,America/Los_Angeles,xs-the-nightclub-at-encore,117,36.1274,-115.168
8719,Encore Beach Club,US,Las Vegas,NV,"Las Vegas, NV 89109",https://seatgeek.com/venues/encore-beach-club/tickets/,"Las Vegas, NV",0.51931,89109,3100 Las Vegas Blvd South,America/Los_Angeles,encore-beach-club,29,36.1311,-115.166
22234,Chattahoochee Hills,US,Fairburn,GA,"Fairburn, GA 30268",https://seatgeek.com/venues/chattahoochee-hills/tickets/,"Fairburn, GA",0.78942,30268,9445 Browns Lake Road,America/New_York,chattahoochee-hills,4,33.6393,-84.7053
41720,Dubuque County Fair,US,Dubuque,IA,"Dubuque, IA 52002",https://seatgeek.com/venues/dubuque-county-fair/tickets/,"Dubuque, IA",0.0,52002,14569 Old Highway Road,America/Chicago,dubuque-county-fair,7,42.4848,-90.8042
308,Wisconsin State Fair Park,US,West Allis,WI,"West Allis, WI 53214",https://seatgeek.com/venues/wisconsin-state-fair-park/tickets/,"West Allis, WI",0.56643,53214,640 S. 84th Street,America/Chicago,wisconsin-state-fair-park,42,43.0244,-88.0158
64,Nikon at Jones Beach Theater,US,Wantagh,NY,"Wantagh, NY 11793",https://seatgeek.com/venues/nikon-at-jones-beach-theater/tickets/,"Wantagh, NY",0.79817,11793,1000 Ocean Parkway,America/New_York,nikon-at-jones-beach-theater,23,40.5951,-73.521
770,Puyallup Fairgrounds,US,Puyallup,WA,"Puyallup, WA 98371",https://seatgeek.com/venues/puyallup-fairgrounds/tickets/,"Puyallup, WA",0.63205,98371,110 9th Ave SW,America/Los_Angeles,puyallup-fairgrounds,16,47.1904,-122.296
3227,Motorpoint Arena Cardiff,UK,Cardiff,Cardiff,"Cardiff, UK",https://seatgeek.com/venues/motorpoint-arena-cardiff-2/tickets/,"Cardiff, UK",0.51299,CF10 2EQ,Mary Ann Street,Europe/London,motorpoint-arena-cardiff-2,33,51.4971,-3.18135
3536,Odyssey Arena,UK,Belfast,Ant,"Belfast, UK",https://seatgeek.com/venues/odyssey-arena/tickets/,"Belfast, UK",0.45969,BT3 9QQ,2 Queens Quay,Europe/London,odyssey-arena,30,54.6016,-5.9184
39216,The SSE Hydro,UK,Glasgow,Glg,"Glasgow, UK",https://seatgeek.com/venues/the-sse-hydro/tickets/,"Glasgow, UK",0.58984,G3 8YW,1 EXHIBITION WAY,Europe/London,the-sse-hydro,63,55.8599,-4.2833
3624,NIA Academy,UK,Birmingham,Warwickshire,"Birmingham, UK",https://seatgeek.com/venues/nia-academy/tickets/,"Birmingham, UK",0.58026,B1,King Edwards Road,Europe/London,nia-academy,48,52.4831,-1.92006
3309,Bournemouth International Centre,UK,Bournemouth,Bmh,"Bournemouth, UK",https://seatgeek.com/venues/bournemouth-international-centre/tickets/,"Bournemouth, UK",0.50564,BH2 5BH,Exeter Road,Europe/London,bournemouth-international-centre,35,50.7204,-1.88091
3324,Brighton Centre,UK,Brighton,Bnh,"Brighton, UK",https://seatgeek.com/venues/brighton-centre/tickets/,"Brighton, UK",0.51615,BN1 2GR,15 Kings Parade,Europe/London,brighton-centre,38,50.8203,-0.14274
138,Molson Canadian Amphitheatre,Canada,Toronto,ON,"Toronto, Canada",https://seatgeek.com/venues/molson-canadian-amphitheatre/tickets/,"Toronto, Canada",0.76469,M6K 3L3,909 Lakeshore Blvd W,America/Toronto,molson-canadian-amphitheatre,31,43.6319,-79.4299
6113,Loggers Sports Grounds,Canada,Squamish,BC,"Squamish, Canada",https://seatgeek.com/venues/loggers-sports-grounds/tickets/,"Squamish, Canada",0.66155,V8B 0H3,39641 Loggers Lane,America/Vancouver,loggers-sports-grounds,4,49.7245,-123.141
7923,The Boulevard Theater,US,Las Vegas,NV,"Las Vegas, NV 89109",https://seatgeek.com/venues/the-boulevard-theater/tickets/,"Las Vegas, NV",0.56038,89109,3708 Las Vegas Boulevard South,America/Los_Angeles,the-boulevard-theater,10,36.1083,-115.173
1025,Piedmont Park,US,Atlanta,GA,"Atlanta, GA 30306",https://seatgeek.com/venues/piedmont-park/tickets/,"Atlanta, GA",0.73848,30306,400 Park Drive,America/New_York,piedmont-park,5,33.7878,-84.3737
48418,National Mall,US,Washington,DC,"Washington, DC 20301",https://seatgeek.com/venues/national-mall/tickets/,"Washington, DC",0.0,20301,900 Ohio Dr. SW,America/New_York,national-mall,1,38.8817,-77.0326
49930,Cofton Park,UK,Birmingham,,"Birmingham, UK",https://seatgeek.com/venues/cofton-park/tickets/,"Birmingham, UK",0.44011,B31 2BQ,Low Hill Lane,Europe/London,cofton-park,4,52.3831,-1.99498
3548,Jammin Java,US,Vienna,VA,"Vienna, VA 22180",https://seatgeek.com/venues/jammin-java/tickets/,"Vienna, VA",0.37611,22180,227 Maple Ave E,America/New_York,jammin-java,104,38.9042,-77.2613
9231,The Studio at Webster Hall,US,New York,NY,"New York, NY 10003",https://seatgeek.com/venues/the-studio-at-webster-hall/tickets/,"New York, NY",0.4716,10003,410 West 42nd Street,America/New_York,the-studio-at-webster-hall,35,40.7584,-73.9934
24070,Fete,US,Providence,RI,"Providence, RI 02909",https://seatgeek.com/venues/fete/tickets/,"Providence, RI",0.0,02909,103 Dike St,America/New_York,fete,5,41.8161,-71.4436
40265,Heat Ultra Lounge,US,Anaheim,CA,"Anaheim, CA 92802",https://seatgeek.com/venues/heat-ultra-lounge/tickets/,"Anaheim, CA",0.0,92802,400 West Disney Way Suite 214,America/Los_Angeles,heat-ultra-lounge,1,33.8353,-117.915
54637,MGM Resorts Village,US,Las Vegas,NV,"Las Vegas, NV 89119",https://seatgeek.com/venues/mgm-resorts-village/tickets/,"Las Vegas, NV",0.72399,89119,3901 Las Vegas Blvd,America/Los_Angeles,mgm-resorts-village,5,36.2309,-115.071
191,The Forum,US,Inglewood,CA,"Inglewood, CA 90305",https://seatgeek.com/venues/the-forum/tickets/,"Inglewood, CA",0.82625,90305,3900 W Manchester Blvd.,America/Los_Angeles,the-forum,24,33.9582,-118.342
9418,Central Field Forest Park,US,Saint Louis,MO,"Saint Louis, MO 63110",https://seatgeek.com/venues/central-field-forest-park/tickets/,"Saint Louis, MO",0.63824,63110,5300 Wells Drive,America/Chicago,central-field-forest-park,2,38.64,-90.28
37304,Champions Square,US,New Orleans,LA,"New Orleans, LA 70112",https://seatgeek.com/venues/champions-square/tickets/,"New Orleans, LA",0.64342,70112,1 Lasalle Street,America/Chicago,champions-square,10,29.9459,-90.0819
16077,Echostage,US,Washington,DC,"Washington, DC 20018",https://seatgeek.com/venues/echostage-1/tickets/,"Washington, DC",0.63168,20018,2135 Queens Chapel Road NE,America/New_York,echostage-1,22,38.9197,-76.9727
3804,Fantasy Springs Resort Casino,US,Indio,CA,"Indio, CA 92203",https://seatgeek.com/venues/fantasy-springs-resort-casino/tickets/,"Indio, CA",0.53624,92203,84245 Indio Springs Parkway,America/Los_Angeles,fantasy-springs-resort-casino,13,33.7215,-116.193
25831,GIGANTINHO,Brazil,Porto Alegre,RS,"Porto Alegre, Brazil",https://seatgeek.com/venues/gigantinho/tickets/,"Porto Alegre, Brazil",0.0,90840-690,Av. Assis Brasil 1200 Passo D'Areia,America/Sao_Paulo,gigantinho,1,-30.008,-51.1734
41945,Green Park - St. Polten,Austria,St. Polten,,"St. Polten, Austria",https://seatgeek.com/venues/green-park-st-polten/tickets/,"St. Polten, Austria",0.0,3109,9 Kelsengasse,Europe/Vienna,green-park-st-polten,1,48.18,15.6234
10286,Weston Park,UK,Shifnal,Tfw,"Shifnal, UK",https://seatgeek.com/venues/weston-park/tickets/,"Shifnal, UK",0.69346,TF11 8LE,Weston-under-Lizard,Europe/London,weston-park,3,52.6954,-2.28983
4331,Hylands Park,UK,Chelmsford,London,"Chelmsford, UK",https://seatgeek.com/venues/hylands-park/tickets/,"Chelmsford, UK",0.6839,CM2 8WQ,London Road,Europe/London,hylands-park,3,51.7125,0.44528
10513,Eishalle Deutweg,Switzerland,Winterthur,ZH,"Winterthur, Switzerland",https://seatgeek.com/venues/eishalle-deutweg/tickets/,"Winterthur, Switzerland",0.0,8400,Gruzefeldstr 30,Europe/Zurich,eishalle-deutweg,3,47.4954,8.74819
9091,Jahrhunderthalle Frankfurt,Germany,Frankfurt am Main,Hesse,"Frankfurt am Main, Germany",https://seatgeek.com/venues/jahrhunderthalle-frankfurt/tickets/,"Frankfurt am Main, Germany",0.0,65929,Pfaffenwiese 301,Europe/Berlin,jahrhunderthalle-frankfurt,9,50.0991,8.51972
4689,Stadtpark Freilichtbuhne,Germany,Hamburg,HH,"Hamburg, Germany",https://seatgeek.com/venues/stadtpark-freilichtbuhne/tickets/,"Hamburg, Germany",0.0,22303,Saarlandstrasse 71,Europe/Berlin,stadtpark-freilichtbuhne,9,53.5972,10.0303
10163,Boucher Playing Fields,Europe,Belfast,Ant,"Belfast, Europe",https://seatgeek.com/venues/boucher-playing-fields/tickets/,"Belfast, Europe",0.40826,BT126HR,Boucher Road,Europe/London,boucher-playing-fields,2,54.5769,-5.96358
17,Rogers Centre,Canada,Toronto,ON,"Toronto, Canada",https://seatgeek.com/venues/rogers-centre/tickets/,"Toronto, Canada",0.75481,M5V 1J1,1 Blue Jays Way,America/Toronto,rogers-centre,66,43.6422,-79.3909
173,Tempe Beach Park,US,Tempe,AZ,"Tempe, AZ 85281",https://seatgeek.com/venues/tempe-beach-park/tickets/,"Tempe, AZ",0.58651,85281,31 E 5th Street,America/Phoenix,tempe-beach-park,8,33.4308,-111.941
539,Theatre of Living Arts,US,Philadelphia,PA,"Philadelphia, PA 19147",https://seatgeek.com/venues/theatre-of-living-arts/tickets/,"Philadelphia, PA",0.50162,19147,334 South Street,America/New_York,theatre-of-living-arts,50,39.9413,-75.1488
519,Irving Plaza,US,New York,NY,"New York, NY 10003",https://seatgeek.com/venues/irving-plaza/tickets/,"New York, NY",0.55847,10003,17 Irving Place,America/New_York,irving-plaza,58,40.7535,-73.981
540,Paradise Rock Club,US,Boston,MA,"Boston, MA 02215",https://seatgeek.com/venues/paradise-rock-club/tickets/,"Boston, MA",0.52254,02215,967 Commonwealth Avenue,America/New_York,paradise-rock-club,34,42.352,-71.1195
3702,Jiffy Lube Live,US,Bristow,VA,"Bristow, VA 20136",https://seatgeek.com/venues/jiffy-lube-live/tickets/,"Bristow, VA",0.76776,20136,7800 Cellar Door Drive,America/New_York,jiffy-lube-live,15,38.7858,-77.5879
151,PNC Bank Arts Center,US,Holmdel,NJ,"Holmdel, NJ 07733",https://seatgeek.com/venues/pnc-bank-arts-center/tickets/,"Holmdel, NJ",0.76981,07733,116 Garden State Pkwy.,America/New_York,pnc-bank-arts-center,28,40.3936,-74.1755
7546,Barclays Center,US,Brooklyn,NY,"Brooklyn, NY 11217",https://seatgeek.com/venues/barclays-center/tickets/,"Brooklyn, NY",0.8488,11217,620 Atlantic Avenue,America/New_York,barclays-center,81,40.6837,-73.9788
139,Bell Centre,Canada,Montreal,QC,"Montreal, Canada",https://seatgeek.com/venues/bell-centre/tickets/,"Montreal, Canada",0.76085,H3C 5L2,1909 Avenue des Canadiens-de-Montreal,America/Toronto,bell-centre,89,45.496,-73.5695
67,DTE Energy Music Theatre,US,Clarkston,MI,"Clarkston, MI 48348",https://seatgeek.com/venues/dte-energy-music-theatre/tickets/,"Clarkston, MI",0.74992,48348,7774 Sashabaw Road,America/Detroit,dte-energy-music-theatre,31,42.7468,-83.3801
3705,Aaron's Amphitheatre at Lakewood,US,Atlanta,GA,"Atlanta, GA 30315",https://seatgeek.com/venues/aaron-s-amphitheatre-at-lakewood/tickets/,"Atlanta, GA",0.76706,30315,2002 Lakewood Way,America/New_York,aaron-s-amphitheatre-at-lakewood,18,33.7009,-84.3954
79,Susquehanna Bank Center,US,Camden,NJ,"Camden, NJ 08103",https://seatgeek.com/venues/susquehanna-bank-center/tickets/,"Camden, NJ",0.77718,08103,1 Harbor Blvd.,America/New_York,susquehanna-bank-center,22,39.9408,-75.1296
3704,First Niagara Pavilion,US,Burgettstown,PA,"Burgettstown, PA 15021",https://seatgeek.com/venues/first-niagara-pavilion/tickets/,"Burgettstown, PA",0.72471,15021,665 Route 18,America/New_York,first-niagara-pavilion,17,40.4236,-80.4268
84,Sprint Center,US,Kansas City,MO,"Kansas City, MO 64106",https://seatgeek.com/venues/sprint-center/tickets/,"Kansas City, MO",0.76102,64106,1407 Grand Boulevard,America/Chicago,sprint-center,55,39.0981,-94.5805
186,Scottrade Center,US,St. Louis,MO,"St. Louis, MO 63103",https://seatgeek.com/venues/scottrade-center/tickets/,"St. Louis, MO",0.78873,63103,1401 Clark Avenue,America/Chicago,scottrade-center,66,38.6262,-90.2021
82,Hollywood Casino Amphitheatre,US,Tinley Park,IL,"Tinley Park, IL 60477",https://seatgeek.com/venues/hollywood-casino-amphitheatre-1/tickets/,"Tinley Park, IL",0.80434,60477,19100 RIDGELAND AVE,America/Chicago,hollywood-casino-amphitheatre-1,21,41.5439,-87.7758
69,Klipsch Music Center,US,Noblesville,IN,"Noblesville, IN 46060",https://seatgeek.com/venues/klipsch-music-center/tickets/,"Noblesville, IN",0.74437,46060,12880 E 146th St,America/Indiana/Indianapolis,klipsch-music-center,21,40.0014,-85.9365
68,Blossom Music Center,US,Cuyahoga Falls,OH,"Cuyahoga Falls, OH 44223",https://seatgeek.com/venues/blossom-music-center/tickets/,"Cuyahoga Falls, OH",0.74572,44223,1145 West Steels Corners Road,America/New_York,blossom-music-center,16,41.1913,-81.5608
168,Darien Lake Performing Arts Center,US,Darien Center,NY,"Darien Center, NY 14040",https://seatgeek.com/venues/darien-lake-performing-arts-center/tickets/,"Darien Center, NY",0.73395,14040,9993 Alleghany Road,America/New_York,darien-lake-performing-arts-center,20,42.9321,-78.3908
1543,Webster Bank Arena,US,Bridgeport,CT,"Bridgeport, CT 06604",https://seatgeek.com/venues/webster-bank-arena/tickets/,"Bridgeport, CT",0.6225,06604,600 Main Street,America/New_York,webster-bank-arena,15,41.1828,-73.181
65,Hersheypark Stadium,US,Hershey,PA,"Hershey, PA 17033",https://seatgeek.com/venues/hersheypark-stadium/tickets/,"Hershey, PA",0.81493,17033,100 W. Hersheypark Dr.,America/New_York,hersheypark-stadium,6,40.288,-76.6545
66917,Atlantic City Beach,US,Atlantic City,NJ,"Atlantic City, NJ 08401",https://seatgeek.com/venues/atlantic-city-beach/tickets/,"Atlantic City, NJ",0.53993,08401,3211 Boardwalk,America/New_York,atlantic-city-beach,3,39.3507,-74.4489
15831,Osaka-Jo Hall,Japan,Osaka,??,"Osaka, Japan",https://seatgeek.com/venues/osaka-jo-hall/tickets/,"Osaka, Japan",0.0,,,Asia/Tokyo,osaka-jo-hall,13,34.6937,135.502
12605,Yokohama Arena,Japan,Yokohama,??,"Yokohama, Japan",https://seatgeek.com/venues/yokohama-arena/tickets/,"Yokohama, Japan",0.0,222-0033,"3-10,Shinyokohama,Kohoku-ku",Asia/Tokyo,yokohama-arena,16,35.4437,139.638
17157,Asiaworld-expo,Hong Kong,Hong Kong,Central And Western,"Hong Kong, Hong Kong",https://seatgeek.com/venues/asiaworld-expo/tickets/,"Hong Kong, Hong Kong",0.0,999077,1 Sky Plaza Road,Asia/Hong_Kong,asiaworld-expo,3,22.3148,113.938
36629,Olympic Gym,South Korea,Seoul,,"Seoul, South Korea",https://seatgeek.com/venues/olympic-gym/tickets/,"Seoul, South Korea",0.0,,,Asia/Seoul,olympic-gym,1,37.5571,126.977
30054,Impact Arena,Thailand,Bangkok,??,"Bangkok, Thailand",https://seatgeek.com/venues/impact-arena/tickets/,"Bangkok, Thailand",0.0,11120,99 Popular Road Banmai Subdistrict Pakkred District,Asia/Bangkok,impact-arena,2,13.7563,100.502
4900,Rod Laver Arena,Australia,Melbourne,Vic,"Melbourne, Australia",https://seatgeek.com/venues/rod-laver-arena/tickets/,"Melbourne, Australia",0.0,3000,Batman Avenue,Australia/Melbourne,rod-laver-arena,20,-37.8218,144.978
7183,Brisbane Entertainment Centre,Australia,Brisbane,Qld,"Brisbane, Australia",https://seatgeek.com/venues/brisbane-entertainment-centre/tickets/,"Brisbane, Australia",0.0,,210 Brunswick Street,Australia/Brisbane,brisbane-entertainment-centre,11,-27.3431,153.073
9846,Allphones Arena,Australia,Sydney,Nsw,"Sydney, Australia",https://seatgeek.com/venues/allphones-arena/tickets/,"Sydney, Australia",0.0,2127,Corner Edwin Flack Avenue and Olympic Boulevard,Australia/Sydney,allphones-arena,1,-33.8443,151.063
119,Van Andel Arena,US,Grand Rapids,MI,"Grand Rapids, MI 49503",https://seatgeek.com/venues/van-andel-arena/tickets/,"Grand Rapids, MI",0.694,49503,130 Fulton Street West,America/Detroit,van-andel-arena,30,42.9621,-85.6716
15868,Luna Park,Argentina,Buenos Aires,C,"Buenos Aires, Argentina",https://seatgeek.com/venues/luna-park/tickets/,"Buenos Aires, Argentina",0.0,C1428,Av. Madero 420,America/Argentina/Buenos_Aires,luna-park,5,-34.6026,-58.3682
13000,Espaco das Americas,Brazil,Sao Paulo,AM,"Sao Paulo, Brazil",https://seatgeek.com/venues/espaco-das-americas/tickets/,"Sao Paulo, Brazil",0.0,01156000,"Rua Tagipuru, 795",America/Sao_Paulo,espaco-das-americas,2,-23.5278,-46.6678
76,Save Mart Center,US,Fresno,CA,"Fresno, CA 93710",https://seatgeek.com/venues/save-mart-center/tickets/,"Fresno, CA",0.69681,93710,2650 East Shaw Avenue,America/Los_Angeles,save-mart-center,7,36.8097,-119.738
45,Rose Bowl,US,Pasadena,CA,"Pasadena, CA 91103",https://seatgeek.com/venues/rose-bowl/tickets/,"Pasadena, CA",0.93961,91103,1001 Rose Bowl Drive,America/Los_Angeles,rose-bowl,9,34.159,-118.168
1087,BankPlus Amphitheater at Snowden Grove,US,Southaven,MS,"Southaven, MS 38672",https://seatgeek.com/venues/bankplus-amphitheater-at-snowden-grove/tickets/,"Southaven, MS",0.66396,38672,6285 Snowden Lane,America/Chicago,bankplus-amphitheater-at-snowden-grove,8,34.9582,-89.9334
2217,Arkansas Music Pavilion,US,Fayetteville,AR,"Fayetteville, AR 72758",https://seatgeek.com/venues/arkansas-music-pavilion/tickets/,"Fayetteville, AR",0.56866,72758,5079 West Northgate Road,America/Chicago,arkansas-music-pavilion,10,36.0626,-94.1574
1128,Arrowhead Stadium,US,Kansas City,MO,"Kansas City, MO 64129",https://seatgeek.com/venues/arrowhead-stadium/tickets/,"Kansas City, MO",0.89132,64129,1 Arrowhead Drive,America/Chicago,arrowhead-stadium,12,39.0489,-94.4839
1131,Sports Authority Field at Mile High,US,Denver,CO,"Denver, CO 80204",https://seatgeek.com/venues/sports-authority-field-at-mile-high/tickets/,"Denver, CO",0.90873,80204,1701 Bryant St.,America/Denver,sports-authority-field-at-mile-high,15,39.6857,-105.018
4290,Darling's Waterfront Pavilion,US,Bangor,ME,"Bangor, ME 04401",https://seatgeek.com/venues/darling-s-waterfront-pavilion/tickets/,"Bangor, ME",0.6787,04401,1 Railroad Street,America/New_York,darling-s-waterfront-pavilion,4,44.7951,-68.7739
303,Pacific Amphitheatre,US,Costa Mesa,CA,"Costa Mesa, CA 92626",https://seatgeek.com/venues/pacific-amphitheatre/tickets/,"Costa Mesa, CA",0.70298,92626,100 Fair Drive,America/Los_Angeles,pacific-amphitheatre,21,33.6639,-117.903
43162,Lyon County Fairgrounds,US,Yerington,NV,"Yerington, NV 89447",https://seatgeek.com/venues/lyon-county-fairgrounds/tickets/,"Yerington, NV",0.36241,89447,100 Hwy 95A South,America/Los_Angeles,lyon-county-fairgrounds,3,38.99,-119.16
311,Peppermill Concert Hall,US,West Wendover,NV,"West Wendover, NV 89883",https://seatgeek.com/venues/peppermill-concert-hall/tickets/,"West Wendover, NV",0.43061,89883,680 Wendover Boulevard,America/Los_Angeles,peppermill-concert-hall,19,40.7374,-114.057
14634,Big Valley Jamboree,Canada,Camrose,AB,"Camrose, Canada",https://seatgeek.com/venues/big-valley-jamboree/tickets/,"Camrose, Canada",0.0,T4V 1X3,4250 Exhibition Dr.,America/Edmonton,big-valley-jamboree,4,53.0055,-112.79
41719,Mississippi Valley Fairgrounds,US,Davenport,IA,"Davenport, IA 52804",https://seatgeek.com/venues/mississippi-valley-fairgrounds/tickets/,"Davenport, IA",0.0,52804,2915 W Locust St,America/Chicago,mississippi-valley-fairgrounds,1,41.5382,-90.62
245,Ironstone Amphitheatre at Ironstone Vineyards,US,Murphys,CA,"Murphys, CA 95247",https://seatgeek.com/venues/ironstone-amphitheatre-at-ironstone-vineyards/tickets/,"Murphys, CA",0.55068,95247,1894 6 Mile Road,America/Los_Angeles,ironstone-amphitheatre-at-ironstone-vineyards,5,38.12,-120.47
5674,Ventura County Fairgrounds,US,Ventura,CA,"Ventura, CA 93001",https://seatgeek.com/venues/ventura-county-fairgrounds-1/tickets/,"Ventura, CA",0.57345,93001,10 West Harbor Boulevard,America/Los_Angeles,ventura-county-fairgrounds-1,1,34.2756,-119.304
8175,Willamette Country Music Festival Grounds,US,Brownsville,OR,"Brownsville, OR 97327",https://seatgeek.com/venues/willamette-country-music-festival-grounds/tickets/,"Brownsville, OR",0.6613,97327,36866 Hwy 228,America/Los_Angeles,willamette-country-music-festival-grounds,1,44.3742,-122.916
523,Tulalip Amphitheatre,US,Tulalip,WA,"Tulalip, WA 98271",https://seatgeek.com/venues/tulalip-amphitheatre/tickets/,"Tulalip, WA",0.54083,98271,10200 Quil Ceda Blvd.,America/Los_Angeles,tulalip-amphitheatre,4,48.0881,-122.189
8011,Palais Theatre,Australia,St Kilda,??,"St Kilda, Australia",https://seatgeek.com/venues/palais-theatre/tickets/,"St Kilda, Australia",0.0,3182,14 Lower Esplanade,Australia/Melbourne,palais-theatre,17,-37.8669,144.975
5059,State Theatre,Australia,Sydney,New South Wales,"Sydney, Australia",https://seatgeek.com/venues/state-theatre-32/tickets/,"Sydney, Australia",0.0,2000,49 Market St,Australia/Sydney,state-theatre-32,8,-33.871,151.207
5120,Parc Jean-Drapeau,Canada,Montreal,QC,"Montreal, Canada",https://seatgeek.com/venues/parc-jean-drapeau/tickets/,"Montreal, Canada",0.63345,H3C 1A9,160 Chemin Tour,America/Toronto,parc-jean-drapeau,11,45.5137,-73.5342
8298,Grant Park,US,Chicago,IL,"Chicago, IL 60601",https://seatgeek.com/venues/grant-park-1/tickets/,"Chicago, IL",0.88328,60601,541 N. Fairbanks,America/Chicago,grant-park-1,5,41.8923,-87.6198
196,Red Rocks Amphitheatre,US,Morrison,CO,"Morrison, CO 80465",https://seatgeek.com/venues/red-rocks-amphitheatre/tickets/,"Morrison, CO",0.7375,80465,18300 W. Alameda Parkway,America/Denver,red-rocks-amphitheatre,79,39.6773,-105.194
63915,Toyenparken,Norway,Oslo,,"Oslo, Norway",https://seatgeek.com/venues/toyenparken/tickets/,"Oslo, Norway",0.0,0563,Toyen Parken,Europe/Oslo,toyenparken,5,59.9191,10.7787
9667,Stradbally Hall,Ireland,Stradbally,Laoighis,"Stradbally, Ireland",https://seatgeek.com/venues/stradbally-hall/tickets/,"Stradbally, Ireland",0.0,STRADBALLY,Stradbally,Europe/Dublin,stradbally-hall,2,53.0163,-7.14741
48472,Rivers Edge Park,US,Council Bluffs,IA,"Council Bluffs, IA 51501",https://seatgeek.com/venues/rivers-edge-park/tickets/,"Council Bluffs, IA",0.0,51501,4000 Avenue B,America/Chicago,rivers-edge-park,6,41.2636,-95.9134
1616,Dover International Speedway,US,Dover,DE,"Dover, DE 19901",https://seatgeek.com/venues/dover-international-speedway/tickets/,"Dover, DE",0.7266,19901,1131 N. Dupont Hwy.,America/New_York,dover-international-speedway,9,39.1884,-75.533
4706,Grand Ole Opry House,US,Nashville,TN,"Nashville, TN 37214",https://seatgeek.com/venues/grand-ole-opry-house/tickets/,"Nashville, TN",0.58053,37214,2804 Opryland Drive,America/Chicago,grand-ole-opry-house,113,36.2063,-86.6936
593,Iowa State Fair,US,Des Moines,IA,"Des Moines, IA 50317",https://seatgeek.com/venues/iowa-state-fair/tickets/,"Des Moines, IA",0.64632,50317,3000 E Grand Ave,America/Chicago,iowa-state-fair,11,41.5956,-93.5546
248,Minnesota State Fair Grandstand,US,Saint Paul,MN,"Saint Paul, MN 55108",https://seatgeek.com/venues/minnesota-state-fair-grandstand/tickets/,"Saint Paul, MN",0.70975,55108,1265 Snelling Ave.,America/Chicago,minnesota-state-fair-grandstand,13,44.9812,-93.167
260,Allentown Fairgrounds,US,Allentown,PA,"Allentown, PA 18104",https://seatgeek.com/venues/allentown-fairgrounds/tickets/,"Allentown, PA",0.72291,18104,302 N. 17th St.,America/New_York,allentown-fairgrounds,12,40.5733,-75.4564
812,Allegan County Fair,US,Allegan,MI,"Allegan, MI 49010",https://seatgeek.com/venues/allegan-county-fair/tickets/,"Allegan, MI",0.65898,49010,150 Allegan County Fair Dr.,America/New_York,allegan-county-fair,3,42.535,-85.8583
49367,"Light Nightclub, Mandalay Bay",US,Las Vegas,NV,"Las Vegas, NV 89119",https://seatgeek.com/venues/light-nightclub-mandalay-bay/tickets/,"Las Vegas, NV",0.41912,89119,3950 Las Vegas Blvd.,America/Los_Angeles,light-nightclub-mandalay-bay,33,36.0908,-115.175
590,Club Nokia,US,Los Angeles,CA,"Los Angeles, CA 90015",https://seatgeek.com/venues/club-nokia/tickets/,"Los Angeles, CA",0.61167,90015,800 West Olympic Blvd,America/Los_Angeles,club-nokia,14,34.0449,-118.265
524,The Warfield,US,San Francisco,CA,"San Francisco, CA 94102",https://seatgeek.com/venues/the-warfield/tickets/,"San Francisco, CA",0.63628,94102,982 Market Street,America/Los_Angeles,the-warfield,20,37.7825,-122.41
297,Count Basie Theatre,US,Red Bank,NJ,"Red Bank, NJ 07701",https://seatgeek.com/venues/count-basie-theatre/tickets/,"Red Bank, NJ",0.56014,07701,99 Monmouth Street,America/New_York,count-basie-theatre,71,40.3489,-74.0702
828,Gothic Theatre,US,Englewood,CO,"Englewood, CO 80113",https://seatgeek.com/venues/gothic-theatre/tickets/,"Englewood, CO",0.45969,80113,3263 S Broadway,America/Denver,gothic-theatre,40,39.6577,-104.988
11254,Dosey Doe,US,The Woodlands,TX,"The Woodlands, TX 77380",https://seatgeek.com/venues/dosey-doe/tickets/,"The Woodlands, TX",0.0,77380,25911 I,America/Chicago,dosey-doe,26,30.1658,-95.4613
1539,The Prophet Bar,US,Dallas,TX,"Dallas, TX 75226",https://seatgeek.com/venues/the-prophet-bar/tickets/,"Dallas, TX",0.57263,75226,2548 Elm Street,America/Chicago,the-prophet-bar,20,32.784,-96.7872
2559,Juanita's,US,Little Rock,AR,"Little Rock, AR 72201",https://seatgeek.com/venues/juanita-s/tickets/,"Little Rock, AR",0.3707,72201,614 President Clinton Ave,America/Chicago,juanita-s,22,34.7475,-92.2636
1687,The Record Bar,US,Kansas City,MO,"Kansas City, MO 64111",https://seatgeek.com/venues/the-record-bar/tickets/,"Kansas City, MO",0.47511,64111,1020 Westport Road,America/Chicago,the-record-bar,22,39.0498,-94.5988
72595,Reverb Lounge,US,Omaha,NE,"Omaha, NE 68104",https://seatgeek.com/venues/reverb-lounge/tickets/,"Omaha, NE",0.0,68104,6121 Military Ave,America/Chicago,reverb-lounge,26,41.2856,-96.0085
32293,Loring Pasta Bar,US,Minneapolis,MN,"Minneapolis, MN 55414",https://seatgeek.com/venues/loring-pasta-bar/tickets/,"Minneapolis, MN",0.0,55414,327 Fourteenth Avenue SE,America/Chicago,loring-pasta-bar,1,44.9798,-93.2364
668,Shank Hall,US,Milwaukee,WI,"Milwaukee, WI 53202",https://seatgeek.com/venues/shank-hall/tickets/,"Milwaukee, WI",0.37611,53202,1434 N. Farwell Ave.,America/Chicago,shank-hall,31,43.0487,-87.8963
14594,The Rathskeller,US,Indianapolis,IN,"Indianapolis, IN 46204",https://seatgeek.com/venues/the-rathskeller-1/tickets/,"Indianapolis, IN",0.0,46204,401 E. Michigan St.,America/New_York,the-rathskeller-1,4,39.7735,-86.1501
2246,Sellersville Theater,US,Sellersville,PA,"Sellersville, PA 18960",https://seatgeek.com/venues/sellersville-theater/tickets/,"Sellersville, PA",0.42956,18960,24 West Temple Avenue,America/New_York,sellersville-theater,73,40.3593,-75.3116
11377,Great Lawn at Central Park,US,New York,NY,"New York, NY 10021",https://seatgeek.com/venues/great-lawn-at-central-park/tickets/,"New York, NY",0.77601,10021,14 E 60th St,America/New_York,great-lawn-at-central-park,1,40.7643,-73.9717
170,Cricket Wireless Amphitheater - KS,US,Bonner Springs,KS,"Bonner Springs, KS 66012",https://seatgeek.com/venues/cricket-wireless-amphitheater-ks/tickets/,"Bonner Springs, KS",0.67718,66012,633 North 130th Street,America/Chicago,cricket-wireless-amphitheater-ks,7,39.1102,-94.8816
809,Great Jones County Fair,US,Monticello,IA,"Monticello, IA 52310",https://seatgeek.com/venues/great-jones-county-fair/tickets/,"Monticello, IA",0.65585,52310,700 North Maple Street,America/Chicago,great-jones-county-fair,9,42.2455,-91.1897
992,Soaring Eagle Casino & Resort,US,Mount Pleasant,MI,"Mount Pleasant, MI 48858",https://seatgeek.com/venues/soaring-eagle-casino-resort/tickets/,"Mount Pleasant, MI",0.58657,48858,6800 Soaring Eagle Boulevard,America/Detroit,soaring-eagle-casino-resort,8,43.608,-84.7122
86,Riverbend Music Center,US,Cincinnati,OH,"Cincinnati, OH 45230",https://seatgeek.com/venues/riverbend-music-center/tickets/,"Cincinnati, OH",0.74419,45230,6295 Kellogg Avenue,America/New_York,riverbend-music-center,19,39.0546,-84.414
56,Hollywood Casino Amphitheatre,US,Maryland Heights,MO,"Maryland Heights, MO 63043",https://seatgeek.com/venues/hollywood-casino-amphitheatre/tickets/,"Maryland Heights, MO",0.73875,63043,14141 Riverport Dr,America/Chicago,hollywood-casino-amphitheatre,25,38.7456,-90.47
5956,Stadion An der Alten Forsterei,Germany,Berlin,Berlin,"Berlin, Germany",https://seatgeek.com/venues/stadion-an-der-alten-forsterei/tickets/,"Berlin, Germany",0.0,13439,Rennbahnstrasse 86,Europe/Berlin,stadion-an-der-alten-forsterei,1,52.4573,13.5683
30870,Esprit Arena,Germany,Dusseldorf,BE,"Dusseldorf, Germany",https://seatgeek.com/venues/esprit-arena/tickets/,"Dusseldorf, Germany",0.0,40474,LTU-Arena-Strasse 1,Europe/Berlin,esprit-arena,1,51.2604,6.73328
7465,Ippodromo Le Capannelle,Italy,Rome,RM,"Rome, Italy",https://seatgeek.com/venues/ippodromo-le-capannelle/tickets/,"Rome, Italy",0.32904,00178,"Via Appia Nuova, 1255",Europe/Rome,ippodromo-le-capannelle,10,41.8234,12.5642
106,Soo Pass Ranch,US,Detroit Lakes,MN,"Detroit Lakes, MN 56501",https://seatgeek.com/venues/soo-pass-ranch/tickets/,"Detroit Lakes, MN",0.64201,56501,25526 Cty Hwy 22,America/Chicago,soo-pass-ranch,2,46.7737,-95.87
6199,Frank Brown Park,US,Panama City Beach,FL,"Panama City Beach, FL 32413",https://seatgeek.com/venues/frank-brown-park-1/tickets/,"Panama City Beach, FL",0.53832,32413,16200 Panama City Beach Parkway,America/Chicago,frank-brown-park-1,2,30.231,-85.8763
723,Rimrock Auto Arena,US,Billings,MT,"Billings, MT 59103",https://seatgeek.com/venues/rimrock-auto-arena/tickets/,"Billings, MT",0.60606,59103,308 6th Ave N,America/Denver,rimrock-auto-arena,7,45.7997,-108.479
102,Rushmore Plaza Civic Center,US,Rapid City,SD,"Rapid City, SD 57701",https://seatgeek.com/venues/rushmore-plaza-civic-center/tickets/,"Rapid City, SD",0.55482,57701,444 Mt. Rushmore Road North,America/Denver,rushmore-plaza-civic-center,3,44.0822,-103.231
1297,James Brown Arena,US,Augusta,GA,"Augusta, GA 30901",https://seatgeek.com/venues/james-brown-arena-1/tickets/,"Augusta, GA",0.66152,30901,601 7th Street,America/New_York,james-brown-arena-1,2,33.4692,-81.966
1565,Crown Complex,US,Fayetteville,NC,"Fayetteville, NC 28306",https://seatgeek.com/venues/crown-complex/tickets/,"Fayetteville, NC",0.62273,28306,1960 Coliseum Drive,America/New_York,crown-complex,14,35.0152,-78.8936
1808,Von Braun Center Arena,US,Huntsville,AL,"Huntsville, AL 35801",https://seatgeek.com/venues/von-braun-center-arena/tickets/,"Huntsville, AL",0.60937,35801,700 Monroe St.,America/Chicago,von-braun-center-arena,16,34.7273,-86.5903
95,i wireless Center,US,Moline,IL,"Moline, IL 61265",https://seatgeek.com/venues/i-wireless-center/tickets/,"Moline, IL",0.71629,61265,1201 River Dr.,America/Chicago,i-wireless-center,14,41.5067,-90.5151
2107,Shadow Hill Ranch,US,Twin Lakes,WI,"Twin Lakes, WI 53181",https://seatgeek.com/venues/shadow-hill-ranch-1/tickets/,"Twin Lakes, WI",0.72498,53181,2305 Lance Dr.,America/Chicago,shadow-hill-ranch-1,5,42.5095,-88.2925
61819,Festival Park,US,Elgin,IL,"Elgin, IL 60120",https://seatgeek.com/venues/festival-park-3/tickets/,"Elgin, IL",0.0,60120,132 S Grove Ave,America/Chicago,festival-park-3,2,42.0345,-88.282
50579,KC Live!,US,Kansas City,MO,"Kansas City, MO 64106",https://seatgeek.com/venues/kc-live/tickets/,"Kansas City, MO",0.0,64106,1100 Walnut Street,America/Chicago,kc-live,3,39.1006,-94.5824
3259,Lincoln Theatre,US,Raleigh,NC,"Raleigh, NC 27601",https://seatgeek.com/venues/lincoln-theatre-2/tickets/,"Raleigh, NC",0.47599,27601,126 East Cabarrus Street,America/New_York,lincoln-theatre-2,15,35.7739,-78.6374
78803,Camp Pendleton,US,Virginia Beach,VA,"Virginia Beach, VA 23462",https://seatgeek.com/venues/camp-pendleton/tickets/,"Virginia Beach, VA",0.0,23462,Birdneck Road and General Booth Boulevard,America/New_York,camp-pendleton,1,36.811,-75.9899
341,Heartland Events Center,US,Grand Island,NE,"Grand Island, NE 68802",https://seatgeek.com/venues/heartland-events-center/tickets/,"Grand Island, NE",0.50185,68802,700 East Stolley Park Rd.,America/Chicago,heartland-events-center,10,40.9021,-98.3285
793,Colorado State Fair,US,Pueblo,CO,"Pueblo, CO 81004",https://seatgeek.com/venues/colorado-state-fair/tickets/,"Pueblo, CO",0.55239,81004,1001 Beulah Ave,America/Denver,colorado-state-fair,9,38.249,-104.636
817,Evergreen State Fair,US,Monroe,WA,"Monroe, WA 98272",https://seatgeek.com/venues/evergreen-state-fair/tickets/,"Monroe, WA",0.50498,98272,14405 179th Avenue Southeast,America/Los_Angeles,evergreen-state-fair,5,47.8655,-121.987
643,LB Day Amphitheatre,US,Salem,OR,"Salem, OR 97310",https://seatgeek.com/venues/lb-day-amphitheatre/tickets/,"Salem, OR",0.52088,97310,2330 17th Street NE,America/Los_Angeles,lb-day-amphitheatre,21,44.9575,-123.011
42869,Sound Nightclub,US,Los Angeles,CA,"Los Angeles, CA 90028",https://seatgeek.com/venues/sound-nightclub/tickets/,"Los Angeles, CA",0.50972,90028,1642 Las Palmas Ave,America/Los_Angeles,sound-nightclub,10,34.1011,-118.336
192,Mountain Winery,US,Saratoga,CA,"Saratoga, CA 95070",https://seatgeek.com/venues/mountain-winery/tickets/,"Saratoga, CA",0.62757,95070,14831 Pierce Road,America/Los_Angeles,mountain-winery,53,37.2604,-122.065
195,Britt Pavilion,US,Jacksonville,OR,"Jacksonville, OR 97530",https://seatgeek.com/venues/britt-pavilion/tickets/,"Jacksonville, OR",0.41973,97530,216 West Main Street,America/Los_Angeles,britt-pavilion,27,42.3144,-122.969
265,Red Butte Garden,US,Salt Lake City,UT,"Salt Lake City, UT 84108",https://seatgeek.com/venues/red-butte-garden/tickets/,"Salt Lake City, UT",0.5268,84108,300 Wakara Way,America/Denver,red-butte-garden,18,40.7653,-111.824
8279,Denver Botanic Gardens York Street,US,Denver,CO,"Denver, CO 80206",https://seatgeek.com/venues/denver-botanic-gardens-york-street/tickets/,"Denver, CO",0.53177,80206,1007 York Street,America/Denver,denver-botanic-gardens-york-street,4,39.73,-104.96
57469,Hard Rock Rocksino - Northfield Park,US,Northfield,OH,"Northfield, OH 44067",https://seatgeek.com/venues/hard-rock-rocksino-northfield-park/tickets/,"Northfield, OH",0.55175,44067,10777 Northfield Rd,America/New_York,hard-rock-rocksino-northfield-park,25,41.3502,-81.5267
532,Centennial Terrace,US,Sylvania,OH,"Sylvania, OH 43560",https://seatgeek.com/venues/centennial-terrace/tickets/,"Sylvania, OH",0.49978,43560,5773 Centennial Road,America/New_York,centennial-terrace,2,41.72,-83.74
3386,Stage AE,US,Pittsburgh,PA,"Pittsburgh, PA 15212",https://seatgeek.com/venues/stage-ae/tickets/,"Pittsburgh, PA",0.55736,15212,400 North Shore Drive,America/New_York,stage-ae,30,40.4457,-80.0125
955,Frederik Meijer Gardens,US,Grand Rapids,MI,"Grand Rapids, MI 49525",https://seatgeek.com/venues/frederik-meijer-gardens/tickets/,"Grand Rapids, MI",0.48371,49525,1000 East Beltline Avenue NE,America/Detroit,frederik-meijer-gardens,16,42.9794,-85.5904
16543,The State Fairgrounds,US,West Allis,WI,"West Allis, WI 53214",https://seatgeek.com/venues/the-state-fairgrounds/tickets/,"West Allis, WI",0.0,53214,640 South 84th Street,America/Chicago,the-state-fairgrounds,5,43.0241,-88.0158
21,Fenway Park,US,Boston,MA,"Boston, MA 02215",https://seatgeek.com/venues/fenway-park/tickets/,"Boston, MA",0.89864,02215,4 Yawkey Way,America/New_York,fenway-park,42,42.3456,-71.0983
3713,Nationals Park,US,Washington,DC,"Washington, DC 20003",https://seatgeek.com/venues/nationals-park/tickets/,"Washington, DC",0.82968,20003,1500 South Capitol St.,America/New_York,nationals-park,36,38.8734,-77.0074
18,Citizens Bank Park,US,Philadelphia,PA,"Philadelphia, PA 19148",https://seatgeek.com/venues/citizens-bank-park/tickets/,"Philadelphia, PA",0.85248,19148,1 Citizens Bank Way,America/New_York,citizens-bank-park,36,39.9055,-75.1666
3,Citi Field,US,Flushing,NY,"Flushing, NY 11368",https://seatgeek.com/venues/citi-field/tickets/,"Flushing, NY",0.80472,11368,1 Roosevelt Avenue,America/New_York,citi-field,38,40.7573,-73.8443
8990,Pepsi Amphitheater,US,Flagstaff,AZ,"Flagstaff, AZ 86001",https://seatgeek.com/venues/pepsi-amphitheater/tickets/,"Flagstaff, AZ",0.40587,86001,504 N Leroux,America/Phoenix,pepsi-amphitheater,5,35.1399,-111.687
673,Canyon Club,US,Agoura Hills,CA,"Agoura Hills, CA 91301",https://seatgeek.com/venues/canyon-club/tickets/,"Agoura Hills, CA",0.42258,91301,28912 Roadside Drive,America/Los_Angeles,canyon-club,43,34.1447,-118.754
53696,Cowichan Exhibition Society Fairgrounds,Canada,Duncan,BC,"Duncan, Canada",https://seatgeek.com/venues/cowichan-exhibition-society-fairgrounds/tickets/,"Duncan, Canada",0.41771,V9L 5Z7,7380 Trans Canada Hwy,America/Vancouver,cowichan-exhibition-society-fairgrounds,1,48.8363,-123.719
60205,Hard Rock Hotel and Casino Sioux City,US,Sioux City,IA,"Sioux City, IA 51101",https://seatgeek.com/venues/hard-rock-hotel-and-casino-sioux-city/tickets/,"Sioux City, IA",0.43756,51101,111 3rd Street,America/Chicago,hard-rock-hotel-and-casino-sioux-city,4,42.4931,-96.4093
41029,Texas Thunder Festival Grounds,US,Gardendale,TX,"Gardendale, TX 79758",https://seatgeek.com/venues/texas-thunder-festival-grounds/tickets/,"Gardendale, TX",0.0,79758,16853-17099 North Chinaberry Avenue,America/Chicago,texas-thunder-festival-grounds,2,32.0453,-102.339
4220,Hulman Center,US,Terre Haute,IN,"Terre Haute, IN 47809",https://seatgeek.com/venues/hulman-center/tickets/,"Terre Haute, IN",0.59878,47809,200 N 8th St,America/Indiana/Indianapolis,hulman-center,2,39.4685,-87.4057
806,Verizon Wireless Arena,US,Manchester,NH,"Manchester, NH 03101",https://seatgeek.com/venues/verizon-wireless-arena/tickets/,"Manchester, NH",0.69048,03101,555 Elm Street,America/New_York,verizon-wireless-arena,24,42.9862,-71.463
150,Canadian Tire Centre,Canada,Kanata,ON,"Kanata, Canada",https://seatgeek.com/venues/canadian-tire-centre/tickets/,"Kanata, Canada",0.7267,K2V 1A5,1000 Paladium Drive,America/Toronto,canadian-tire-centre,61,45.2973,-75.9258
135,Target Center,US,Minneapolis,MN,"Minneapolis, MN 55403",https://seatgeek.com/venues/target-center/tickets/,"Minneapolis, MN",0.73909,55403,600 First Avenue North,America/Chicago,target-center,26,44.9795,-93.2762
9297,Hartwall Arena,Finland,Helsinki,??,"Helsinki, Finland",https://seatgeek.com/venues/hartwall-arena/tickets/,"Helsinki, Finland",0.0,00250,,Europe/Helsinki,hartwall-arena,2,60.1733,24.941
43556,Ericsson Globe Arena,Sweden,Johanneshov,Sto,"Johanneshov, Sweden",https://seatgeek.com/venues/ericsson-globe-arena-1/tickets/,"Johanneshov, Sweden",0.0,12177,Globentorget 2,Europe/Stockholm,ericsson-globe-arena-1,3,59.2943,18.0808
7255,Oslo Spektrum,Norway,Oslo,03,"Oslo, Norway",https://seatgeek.com/venues/oslo-spektrum/tickets/,"Oslo, Norway",0.0,0185,Sonja Henies Plass 2,Europe/Oslo,oslo-spektrum,10,59.9126,10.7548
9912,Jyske Bank Boxen,Denmark,Herning,065,"Herning, Denmark",https://seatgeek.com/venues/jyske-bank-boxen/tickets/,"Herning, Denmark",0.0,7400,Kaj Zartows vej 7,Europe/Copenhagen,jyske-bank-boxen,3,56.1184,8.9523
8996,O2 World Hamburg,Germany,Hamburg,HH,"Hamburg, Germany",https://seatgeek.com/venues/o2-world-hamburg/tickets/,"Hamburg, Germany",0.0,22525,Sylvester Allee 10,Europe/Berlin,o2-world-hamburg,23,53.5886,9.89984
4589,Lanxess Arena,Germany,Cologne,NW,"Cologne, Germany",https://seatgeek.com/venues/lanxess-arena/tickets/,"Cologne, Germany",0.0,50679,Willy-Brandt-Platz 3,Europe/Berlin,lanxess-arena,47,50.9384,6.98112
7188,Rockhal,Luxembourg,Esch-sur-Alzette,L,"Esch-sur-Alzette, Luxembourg",https://seatgeek.com/venues/rockhal/tickets/,"Esch-sur-Alzette, Luxembourg",0.0,L-4003,5 Avenue Du Rock'n'roll,Europe/Luxembourg,rockhal,19,49.5005,5.94788
580,South Shore Music Circus,US,Cohasset,MA,"Cohasset, MA 02025",https://seatgeek.com/venues/south-shore-music-circus/tickets/,"Cohasset, MA",0.53123,02025,130 Sohier Street,America/New_York,south-shore-music-circus,16,42.24,-70.8
3356,NYCB Theatre at Westbury,US,Westbury,NY,"Westbury, NY 11590",https://seatgeek.com/venues/nycb-theatre-at-westbury/tickets/,"Westbury, NY",0.59008,11590,960 Brush Hollow Road,America/New_York,nycb-theatre-at-westbury,58,40.7534,-73.5859
8558,Rangeley Health and Wellness Pavilion,US,Rangeley,ME,"Rangeley, ME 04970",https://seatgeek.com/venues/rangeley-health-and-wellness-pavilion/tickets/,"Rangeley, ME",0.0,04970,25 Dallas Hill Road,America/New_York,rangeley-health-and-wellness-pavilion,1,45.04,-70.65
345,Cape Cod Melody Tent,US,Hyannis,MA,"Hyannis, MA 02601",https://seatgeek.com/venues/cape-cod-melody-tent/tickets/,"Hyannis, MA",0.54553,02601,21 West Main Street,America/New_York,cape-cod-melody-tent,28,41.6475,-70.2974
675,Delaware State Fair,US,Harrington,DE,"Harrington, DE 19952",https://seatgeek.com/venues/delaware-state-fair/tickets/,"Harrington, DE",0.64925,19952,644 Fairground Road,America/New_York,delaware-state-fair,9,38.912,-75.5731
579,Hampton Beach Casino Ballroom,US,Hampton Beach,NH,"Hampton Beach, NH 03842",https://seatgeek.com/venues/hampton-beach-casino-ballroom/tickets/,"Hampton Beach, NH",0.53117,03842,169 Ocean Blvd,America/New_York,hampton-beach-casino-ballroom,34,42.9096,-70.811
49795,Champaign County Fair,US,Urbana,IL,"Urbana, IL 61801",https://seatgeek.com/venues/champaign-county-fair/tickets/,"Urbana, IL",0.0,61801,1302 N. Coler Ave.,America/Chicago,champaign-county-fair,2,40.1238,-88.2158
2499,Midland County Fair,US,Midland,MI,"Midland, MI 48642",https://seatgeek.com/venues/midland-county-fair/tickets/,"Midland, MI",0.53655,48642,6905 Eastman Avenue,America/Detroit,midland-county-fair,1,43.6584,-84.2472
787,Milwaukee Theatre,US,Milwaukee,WI,"Milwaukee, WI 53203",https://seatgeek.com/venues/milwaukee-theatre/tickets/,"Milwaukee, WI",0.57999,53203,500 West Kilbourn Avenue,America/Chicago,milwaukee-theatre,6,43.0418,-87.9068
315,Grand Casino Hinckley Event Center,US,Hinckley,MN,"Hinckley, MN 55037",https://seatgeek.com/venues/grand-casino-hinckley-event-center/tickets/,"Hinckley, MN",0.56776,55037,777 Lady Luck Dr,America/Chicago,grand-casino-hinckley-event-center,4,46.0109,-92.9052
712,Fox Theatre,US,Atlanta,GA,"Atlanta, GA 30308",https://seatgeek.com/venues/fox-theatre-1/tickets/,"Atlanta, GA",0.64733,30308,660 Peachtree St NE,America/New_York,fox-theatre-1,143,33.7727,-84.3853
1266,Thunder Bay Community Auditorium,Canada,Thunder Bay,ON,"Thunder Bay, Canada",https://seatgeek.com/venues/thunder-bay-community-auditorium/tickets/,"Thunder Bay, Canada",0.38554,P7B 6C7,1 Paul Shaffer Drive,America/Thunder_Bay,thunder-bay-community-auditorium,8,48.3913,-89.2885
8001,PNE Amphitheatre,Canada,Vancouver,BC,"Vancouver, Canada",https://seatgeek.com/venues/pne-amphitheatre/tickets/,"Vancouver, Canada",0.58952,V5K 5J1,2901 East Hastings Street,America/Vancouver,pne-amphitheatre,14,49.28,-123.04
2261,Alaska State Fair Borealis Theatre,US,Palmer,AK,"Palmer, AK 99645",https://seatgeek.com/venues/alaska-state-fair-borealis-theatre/tickets/,"Palmer, AK",0.43756,99645,2075 Glenn Highway,America/Anchorage,alaska-state-fair-borealis-theatre,9,61.5994,-149.117
236,Bank of New Hampshire Pavilion at Meadowbrook,US,Gilford,NH,"Gilford, NH 03249",https://seatgeek.com/venues/bank-of-new-hampshire-pavilion-at-meadowbrook/tickets/,"Gilford, NH",0.64722,03249,72 Meadowbrook Lane,America/New_York,bank-of-new-hampshire-pavilion-at-meadowbrook,16,43.5775,-71.4101
80,Toyota Pavilion At Montage Mountain,US,Scranton,PA,"Scranton, PA 18505",https://seatgeek.com/venues/toyota-pavilion-at-montage-mountain/tickets/,"Scranton, PA",0.66382,18505,1000 Montage Mountain Rd,America/New_York,toyota-pavilion-at-montage-mountain,11,41.3479,-75.6637
49,Shoreline Amphitheatre,US,Mountain View,CA,"Mountain View, CA 94043",https://seatgeek.com/venues/shoreline-amphitheatre/tickets/,"Mountain View, CA",0.78181,94043,1 Amphitheatre Parkway,America/Los_Angeles,shoreline-amphitheatre,22,37.4234,-122.078
53,Irvine Meadows Amphitheatre,US,Irvine,CA,"Irvine, CA 92618",https://seatgeek.com/venues/irvine-meadows-amphitheatre/tickets/,"Irvine, CA",0.79212,92618,8808 Irvine Center Dr,America/Los_Angeles,irvine-meadows-amphitheatre,22,33.6439,-117.739
51,Sleep Train Amphitheatre,US,Chula Vista,CA,"Chula Vista, CA 91911",https://seatgeek.com/venues/sleep-train-amphitheatre-1/tickets/,"Chula Vista, CA",0.75165,91911,2050 Entertainment Circle,America/Los_Angeles,sleep-train-amphitheatre-1,13,32.5896,-117.007
5770,Sands Steel Stage at PNC Plaza,US,Bethlehem,PA,"Bethlehem, PA 18015",https://seatgeek.com/venues/sands-steel-stage-at-pnc-plaza/tickets/,"Bethlehem, PA",0.6164,18015,25 W. Third Street,America/New_York,sands-steel-stage-at-pnc-plaza,7,40.6119,-75.3798
78020,The Borgata Festival Park,US,Atlantic City,NJ,"Atlantic City, NJ 08401",https://seatgeek.com/venues/the-borgata-festival-park/tickets/,"Atlantic City, NJ",0.67352,08401,1 Borgata Way,America/New_York,the-borgata-festival-park,7,39.3781,-74.4338
169,Merriweather Post Pavilion,US,Columbia,MD,"Columbia, MD 21044",https://seatgeek.com/venues/merriweather-post-pavilion/tickets/,"Columbia, MD",0.72818,21044,10475 Little Patuxent Parkway,America/New_York,merriweather-post-pavilion,18,39.2115,-76.863
10235,Parc del Forum,Spain,Barcelona,Catalonia,"Barcelona, Spain",https://seatgeek.com/venues/parc-del-forum/tickets/,"Barcelona, Spain",0.0,08019,"Pje de Prim, 2",Europe/Madrid,parc-del-forum,2,41.411,2.22004
58,Saratoga Performing Arts Center,US,Saratoga Springs,NY,"Saratoga Springs, NY 12866",https://seatgeek.com/venues/saratoga-performing-arts-center/tickets/,"Saratoga Springs, NY",0.75385,12866,108 Avenue of the Pines,America/New_York,saratoga-performing-arts-center,17,43.0865,-73.8655
11870,Bodenseestadion,Germany,Konstanz,,"Konstanz, Germany",https://seatgeek.com/venues/bodenseestadion/tickets/,"Konstanz, Germany",0.0,78464,Eichhornstrasse 89,Europe/Berlin,bodenseestadion,1,47.667,9.21484
10272,Empire Music Hall,ND,Belfast,Ant,"Belfast, ND",https://seatgeek.com/venues/empire-music-hall/tickets/,"Belfast, ND",0.0,BT7 1FQ,42 Botanic Ave,Europe/London,empire-music-hall,22,54.5881,-5.93302
457,California Mid-State Fair,US,Paso Robles,CA,"Paso Robles, CA 93446",https://seatgeek.com/venues/california-mid-state-fair/tickets/,"Paso Robles, CA",0.67835,93446,2198 Riverside Ave.,America/Los_Angeles,california-mid-state-fair,11,35.6384,-120.686
1587,MetLife Stadium,US,East Rutherford,NJ,"East Rutherford, NJ 07073",https://seatgeek.com/venues/metlife-stadium/tickets/,"East Rutherford, NJ",0.95865,07073,1 MetLife Stadium Drive,America/New_York,metlife-stadium,24,40.8128,-74.0742
39159,Lowther Deer Park,UK,Penrith,Cma,"Penrith, UK",https://seatgeek.com/venues/lowther-deer-park/tickets/,"Penrith, UK",0.0,CA10 2HH,Lowther Deer Park,Europe/London,lowther-deer-park,2,54.6645,-2.75086
43399,Mouldridge Lane,UK,Matlock,,"Matlock, UK",https://seatgeek.com/venues/mouldridge-lane-1/tickets/,"Matlock, UK",0.0,DE4 2PN,Peak District National Park,Europe/London,mouldridge-lane-1,1,53.2399,-1.72106
5865,National Western Complex,US,Denver,CO,"Denver, CO 80216",https://seatgeek.com/venues/national-western-complex/tickets/,"Denver, CO",0.0,80216,4655 Humboldt St,America/Denver,national-western-complex,7,39.7812,-104.971
54728,Douglas Park,US,Chicago,IL,"Chicago, IL 60623",https://seatgeek.com/venues/douglas-park-1/tickets/,"Chicago, IL",0.0,60623,1401 S. Sacramento Dr.,America/Chicago,douglas-park-1,3,41.859,-87.6955
4065,Del Mar Fairgrounds,US,Del Mar,CA,"Del Mar, CA 92014",https://seatgeek.com/venues/del-mar-fairgrounds/tickets/,"Del Mar, CA",0.56674,92014,2260 Jimmy Durante Blvd.,America/Los_Angeles,del-mar-fairgrounds,15,32.9738,-117.257
8226,Downtown Las Vegas,US,Las Vegas,NV,"Las Vegas, NV 89101",https://seatgeek.com/venues/downtown-las-vegas/tickets/,"Las Vegas, NV",0.61597,89101,495 South Main Street,America/Los_Angeles,downtown-las-vegas,113,36.1674,-115.148
3700,Xfinity Theatre,US,Hartford,CT,"Hartford, CT 06120",https://seatgeek.com/venues/xfinity-theatre/tickets/,"Hartford, CT",0.75352,06120,61 Savitt Way,America/New_York,xfinity-theatre,9,41.7812,-72.669
2331,Camrose Exhibition Centre,Canada,Camrose,AB,"Camrose, Canada",https://seatgeek.com/venues/camrose-exhibition-centre/tickets/,"Camrose, Canada",0.52063,T4V 1X3,4250 Exhibition Drive,America/Edmonton,camrose-exhibition-centre,2,53.0058,-112.786
7860,Burls Creek Park,Canada,Oro,ON,"Oro, Canada",https://seatgeek.com/venues/burls-creek-park/tickets/,"Oro, Canada",0.39815,L0L 2X0,134 8 Line South,America/Toronto,burls-creek-park,2,44.4811,-79.5157
9024,Canyon County Fair,US,Caldwell,ID,"Caldwell, ID 83606",https://seatgeek.com/venues/canyon-county-fair/tickets/,"Caldwell, ID",0.0,83606,111 22nd Street,America/Boise,canyon-county-fair,3,43.6565,-116.672
522,City National Grove of Anaheim,US,Anaheim,CA,"Anaheim, CA 92806",https://seatgeek.com/venues/city-national-grove-of-anaheim/tickets/,"Anaheim, CA",0.54706,92806,2200 East Katella Ave.,America/Los_Angeles,city-national-grove-of-anaheim,25,33.8031,-117.886
683,Weesner Family Amphitheater,US,Apple Valley,MN,"Apple Valley, MN 55124",https://seatgeek.com/venues/weesner-family-amphitheater/tickets/,"Apple Valley, MN",0.53619,55124,13000 Zoo Boulevard,America/Chicago,weesner-family-amphitheater,14,44.7674,-93.1958
694,Missouri State Fair,US,Sedalia,MO,"Sedalia, MO 65301",https://seatgeek.com/venues/missouri-state-fair/tickets/,"Sedalia, MO",0.56708,65301,2503 W 16th St,America/Chicago,missouri-state-fair,20,38.6987,-93.2566
61482,Harrah's Gulf Coast Great Lawn,US,Biloxi,MS,"Biloxi, MS 39530",https://seatgeek.com/venues/harrah-s-gulf-coast-great-lawn/tickets/,"Biloxi, MS",0.0,39530,280 Beach Blvd,America/Chicago,harrah-s-gulf-coast-great-lawn,3,30.3932,-88.8672
4844,La Comedy Club Inside Cabo Wabo Lounge (Planet Hollywood),US,Las Vegas,NV,"Las Vegas, NV 89109",https://seatgeek.com/venues/la-comedy-club-inside-cabo-wabo-lounge-planet-hollywood/tickets/,"Las Vegas, NV",0.77027,89109,3667 S Las Vegas Blvd,America/Los_Angeles,la-comedy-club-inside-cabo-wabo-lounge-planet-hollywood,74,36.1101,-115.173
55703,CANAL OPUS,France,Paris,,"Paris, France",https://seatgeek.com/venues/canal-opus/tickets/,"Paris, France",0.0,75010,116 quai de Jemmapes,Europe/Paris,canal-opus,1,48.8748,2.36374
2437,Porter County Fairgrounds,US,Valparaiso,IN,"Valparaiso, IN 46383",https://seatgeek.com/venues/porter-county-fairgrounds/tickets/,"Valparaiso, IN",0.55672,46383,215 East Division Road,America/Chicago,porter-county-fairgrounds,1,41.436,-87.0245
1052,Four Seasons Arena,US,Great Falls,MT,"Great Falls, MT 59403",https://seatgeek.com/venues/four-seasons-arena/tickets/,"Great Falls, MT",0.4166,59403,400 3rd Street NW,America/Denver,four-seasons-arena,3,47.5116,-111.317
38912,Oregon Jamboree,US,Sweet Home,OR,"Sweet Home, OR 97386",https://seatgeek.com/venues/oregon-jamboree/tickets/,"Sweet Home, OR",0.51967,97386,860 18th Avenue,America/Los_Angeles,oregon-jamboree,2,44.3937,-122.723
11071,Mercer County Park Festival Grounds,US,West Windsor,NJ,"West Windsor, NJ 08550",https://seatgeek.com/venues/mercer-county-park-festival-grounds/tickets/,"West Windsor, NJ",0.53207,08550,1638 Old Trenton Road,America/New_York,mercer-county-park-festival-grounds,1,40.2553,-74.6292
910,Deer Valley Resort,US,Park City,UT,"Park City, UT 84060",https://seatgeek.com/venues/deer-valley-resort/tickets/,"Park City, UT",0.43492,84060,2250 Deer Valley Dr. South,America/Denver,deer-valley-resort,10,40.6384,-111.48
646,IP Casino Resort and Spa,US,Biloxi,MS,"Biloxi, MS 39530",https://seatgeek.com/venues/ip-casino-resort-and-spa/tickets/,"Biloxi, MS",0.51607,39530,850 Bayview Avenue,America/Chicago,ip-casino-resort-and-spa,18,30.4116,-88.8909
159,Rialto Theatre,US,Tucson,AZ,"Tucson, AZ 85701",https://seatgeek.com/venues/rialto-theatre/tickets/,"Tucson, AZ",0.4738,85701,318 E. Congress Street,America/Phoenix,rialto-theatre,45,32.222,-110.967
14884,North Lake Park,US,Garnett,KS,"Garnett, KS 66032",https://seatgeek.com/venues/north-lake-park/tickets/,"Garnett, KS",0.0,66032,600 North Lake Road,America/Chicago,north-lake-park,1,38.2888,-95.2395
2399,Pfeiffer Hall,US,Naperville,IL,"Naperville, IL 60540",https://seatgeek.com/venues/pfeiffer-hall/tickets/,"Naperville, IL",0.43126,60540,310 E. Benton Ave.,America/Chicago,pfeiffer-hall,13,41.7749,-88.1433
411,Wente Vineyards,US,Livermore,CA,"Livermore, CA 94550",https://seatgeek.com/venues/wente-vineyards/tickets/,"Livermore, CA",0.53032,94550,5050 Arroyo Road,America/Los_Angeles,wente-vineyards,9,37.67,-121.76
316,Hollywood Bowl,US,Los Angeles,CA,"Los Angeles, CA 90068",https://seatgeek.com/venues/hollywood-bowl/tickets/,"Los Angeles, CA",0.79193,90068,2301 N. Highland Ave,America/Los_Angeles,hollywood-bowl,66,34.1127,-118.339
8507,5th Street Beach Stage,US,Virginia Beach,VA,"Virginia Beach, VA 23451",https://seatgeek.com/venues/5th-street-beach-stage-1/tickets/,"Virginia Beach, VA",0.43405,23451,1815 Stadium Road,America/New_York,5th-street-beach-stage-1,4,36.8886,-76.0562
4975,Coachman Park,US,Clearwater,FL,"Clearwater, FL 33755",https://seatgeek.com/venues/coachman-park/tickets/,"Clearwater, FL",0.58948,33755,301 Drew Street,America/New_York,coachman-park,7,27.97,-82.8
60,Xfinity Center,US,Mansfield,MA,"Mansfield, MA 02048",https://seatgeek.com/venues/xfinity-center/tickets/,"Mansfield, MA",0.78448,02048,885 S Main St,America/New_York,xfinity-center,17,41.9923,-71.219
54,Gexa Energy Pavilion,US,Dallas,TX,"Dallas, TX 75210",https://seatgeek.com/venues/gexa-energy-pavilion/tickets/,"Dallas, TX",0.77909,75210,1818 1st Ave,America/Chicago,gexa-energy-pavilion,25,32.77,-96.76
1114,Northern Quest Resort & Casino,US,Airway Heights,WA,"Airway Heights, WA 99001",https://seatgeek.com/venues/northern-quest-resort-casino/tickets/,"Airway Heights, WA",0.48632,99001,100 North Hayford Road,America/Los_Angeles,northern-quest-resort-casino,8,47.6591,-117.561
489,Stiefel Theatre For The Performing Arts,US,Salina,KS,"Salina, KS 67402",https://seatgeek.com/venues/stiefel-theatre-for-the-performing-arts-1/tickets/,"Salina, KS",0.47633,67402,151 S. Santa Fe,America/Chicago,stiefel-theatre-for-the-performing-arts-1,18,38.8385,-97.6087
78733,Battery Park,US,Sioux City,IA,"Sioux City, IA 51101",https://seatgeek.com/venues/battery-park-2/tickets/,"Sioux City, IA",0.0,51101,111 3rd Street,America/Chicago,battery-park-2,3,42.5,-96.4003
8625,Silver Creek Event Center at Four Winds New Buffalo,US,New Buffalo,MI,"New Buffalo, MI 49117",https://seatgeek.com/venues/silver-creek-event-center-at-four-winds-new-buffalo/tickets/,"New Buffalo, MI",0.59181,49117,11111 Wilson Road,America/Detroit,silver-creek-event-center-at-four-winds-new-buffalo,6,41.78,-86.71
1811,Honeywell Center,US,Wabash,IN,"Wabash, IN 46992",https://seatgeek.com/venues/honeywell-center/tickets/,"Wabash, IN",0.44642,46992,275 West Market Street,America/New_York,honeywell-center,8,40.7963,-85.8251
203,Artpark,US,Lewiston,NY,"Lewiston, NY 14092",https://seatgeek.com/venues/artpark/tickets/,"Lewiston, NY",0.56353,14092,450 South 4th St.,America/New_York,artpark,20,43.1655,-79.0453
49668,Otsiningo Park,US,Binghamton,NY,"Binghamton, NY 13901",https://seatgeek.com/venues/otsiningo-park/tickets/,"Binghamton, NY",0.0,13901,1 Otsiningo Park,America/New_York,otsiningo-park,1,42.1202,-75.9046
201,Maine State Pier,US,Portland,ME,"Portland, ME 04101",https://seatgeek.com/venues/maine-state-pier/tickets/,"Portland, ME",0.55703,04101,55 Commercial St,America/New_York,maine-state-pier,15,43.6577,-70.2501
466,Emerald Queen Casino,US,Tacoma,WA,"Tacoma, WA 98404",https://seatgeek.com/venues/emerald-queen-casino/tickets/,"Tacoma, WA",0.55567,98404,2102 Alexander Ave,America/Los_Angeles,emerald-queen-casino,8,47.2649,-122.385
24942,Deep Water Amphitheater,US,Manson,WA,"Manson, WA 98831",https://seatgeek.com/venues/deep-water-amphitheater/tickets/,"Manson, WA",0.0,98831,455 Wapato Lake Road,America/Los_Angeles,deep-water-amphitheater,6,47.8853,-120.131
6073,Celebrate Virginia Live,US,Fredericksburg,VA,"Fredericksburg, VA 22401",https://seatgeek.com/venues/celebrate-virginia-live/tickets/,"Fredericksburg, VA",0.48632,22401,1 Gordon W. Shelton Blvd.,America/New_York,celebrate-virginia-live,4,38.3009,-77.4591
9958,Cuyahoga County Fairgrounds,US,Berea,OH,"Berea, OH 44017",https://seatgeek.com/venues/cuyahoga-county-fairgrounds/tickets/,"Berea, OH",0.42889,44017,164 Eastland Road,America/New_York,cuyahoga-county-fairgrounds,5,41.3658,-81.844
546,The Chance,US,Poughkeepsie,NY,"Poughkeepsie, NY 12601",https://seatgeek.com/venues/the-chance/tickets/,"Poughkeepsie, NY",0.45123,12601,6 Crannell Street,America/New_York,the-chance,20,41.7033,-73.9254
252,B.B. King Blues Club & Grill,US,New York,NY,"New York, NY 10036",https://seatgeek.com/venues/b-b-king-blues-club-grill/tickets/,"New York, NY",0.4459,10036,237 West 42nd Street,America/New_York,b-b-king-blues-club-grill,312,40.7566,-73.9883
8703,Melkweg,Netherlands,Amsterdam,??,"Amsterdam, Netherlands",https://seatgeek.com/venues/melkweg/tickets/,"Amsterdam, Netherlands",0.33454,1017 PH,,Europe/Amsterdam,melkweg,60,52.3731,4.89333
4789,Live Music Hall,Germany,Cologne,NW,"Cologne, Germany",https://seatgeek.com/venues/live-music-hall/tickets/,"Cologne, Germany",0.0,50825,50825 Ehrenfeld,Europe/Berlin,live-music-hall,35,50.9375,6.96028
11352,Kesselhaus,Germany,Munich,BY,"Munich, Germany",https://seatgeek.com/venues/kesselhaus/tickets/,"Munich, Germany",0.0,80939,Lilienthalallee 29,Europe/Berlin,kesselhaus,8,48.1948,11.6084
4866,Batschkapp,Germany,Frankfurt,Hesse,"Frankfurt, Germany",https://seatgeek.com/venues/batschkapp/tickets/,"Frankfurt, Germany",0.0,60433,Maybachstrasse 24,Europe/Berlin,batschkapp,55,50.1595,8.65583
5071,Le Bataclan,France,Paris,Ile,"Paris, France",https://seatgeek.com/venues/le-bataclan/tickets/,"Paris, France",0.32552,75011,50 Boulevard Voltaire,Europe/Paris,le-bataclan,26,48.8632,2.37103
9497,Olympia Theatre,Ireland,Dublin,D,"Dublin, Ireland",https://seatgeek.com/venues/olympia-theatre/tickets/,"Dublin, Ireland",0.37866,2,72 Dame Street,Europe/Dublin,olympia-theatre,35,53.3442,-6.26606
4771,O2 ABC Glasgow,UK,Glasgow,Rfw,"Glasgow, UK",https://seatgeek.com/venues/o2-abc-glasgow/tickets/,"Glasgow, UK",0.42503,G2 3JA,300 Sauchiehall Street,Europe/London,o2-abc-glasgow,94,55.8642,-4.2532
4497,O2 Shepherds Bush Empire,UK,London,Lnd,"London, UK",https://seatgeek.com/venues/o2-shepherds-bush-empire/tickets/,"London, UK",0.4774,W12 8TT,205 Goldhawk Rd.,Europe/London,o2-shepherds-bush-empire,65,51.5003,-0.23524
4679,Manchester Academy 2,UK,Manchester,Gtm,"Manchester, UK",https://seatgeek.com/venues/manchester-academy-2/tickets/,"Manchester, UK",0.37406,M13 9PR,Oxford Road,Europe/London,manchester-academy-2,25,53.4686,-2.23573
305,Billy Bob's Texas,US,Fort Worth,TX,"Fort Worth, TX 76106",https://seatgeek.com/venues/billy-bob-s-texas/tickets/,"Fort Worth, TX",0.53528,76106,2520 Rodeo Plaza,America/Chicago,billy-bob-s-texas,24,32.7911,-97.3478
903,Tingley Coliseum,US,Albuquerque,NM,"Albuquerque, NM 87108",https://seatgeek.com/venues/tingley-coliseum/tickets/,"Albuquerque, NM",0.62128,87108,300 San Pedro NE,America/Denver,tingley-coliseum,9,35.0823,-106.573
340,Celeste Center,US,Columbus,OH,"Columbus, OH 43211",https://seatgeek.com/venues/celeste-center/tickets/,"Columbus, OH",0.60864,43211,717 East 17th Avenue,America/New_York,celeste-center,12,39.9612,-82.9988
351,Fraze Pavilion,US,Kettering,OH,"Kettering, OH 45429",https://seatgeek.com/venues/fraze-pavilion/tickets/,"Kettering, OH",0.57697,45429,695 Lincoln Park Blvd,America/New_York,fraze-pavilion,17,39.6968,-84.1582
1230,WinStar World Casino,US,Thackerville,OK,"Thackerville, OK 73459",https://seatgeek.com/venues/winstar-world-casino/tickets/,"Thackerville, OK",0.64177,73459,777 Casino Ave.,America/Chicago,winstar-world-casino,25,33.7578,-97.1325
1891,Wembley Arena,UK,London,London,"London, UK",https://seatgeek.com/venues/wembley-arena/tickets/,"London, UK",0.60756,HA9 0AA,Arena Square,Europe/London,wembley-arena,36,51.3915,-0.05832
2503,London Music Hall,Canada,London,ON,"London, Canada",https://seatgeek.com/venues/london-music-hall/tickets/,"London, Canada",0.41531,N6A 1G7,178 Dundas St,America/Toronto,london-music-hall,11,42.984,-81.2492
12613,Orr Centre,Canada,Regina,SK,"Regina, Canada",https://seatgeek.com/venues/orr-centre/tickets/,"Regina, Canada",0.0,S4T 0H8,4400 4th Ave,America/Regina,orr-centre,1,50.4629,-104.644
6496,Distrikt Nightclub,Canada,Victoria,BC,"Victoria, Canada",https://seatgeek.com/venues/distrikt-nightclub/tickets/,"Victoria, Canada",0.29393,V8W 2C2,919 Douglas Street,America/Vancouver,distrikt-nightclub,2,48.4236,-123.366
57,Alpine Valley Music Theatre,US,East Troy,WI,"East Troy, WI 53120",https://seatgeek.com/venues/alpine-valley-music-theatre/tickets/,"East Troy, WI",0.80104,53120,2699 Highway D,America/Chicago,alpine-valley-music-theatre,5,42.7429,-88.4315
3025,MidFlorida Credit Union Amphitheatre at the Florida State Fairgrounds,US,Tampa,FL,"Tampa, FL 33610",https://seatgeek.com/venues/midflorida-credit-union-amphitheatre-at-the-florida-state-fairgrounds/tickets/,"Tampa, FL",0.78186,33610,4802 US Highway 301 North,America/New_York,midflorida-credit-union-amphitheatre-at-the-florida-state-fairgrounds,20,27.9935,-82.365
74,Coral Sky Amphitheatre,US,West Palm Beach,FL,"West Palm Beach, FL 33411",https://seatgeek.com/venues/coral-sky-amphitheatre/tickets/,"West Palm Beach, FL",0.76729,33411,601 Sansburys Way,America/New_York,coral-sky-amphitheatre,19,26.6868,-80.1843
2631,Eddie's Attic,US,Decatur,GA,"Decatur, GA 30030",https://seatgeek.com/venues/eddie-s-attic/tickets/,"Decatur, GA",0.30117,30030,515 North Mcdonough St,America/New_York,eddie-s-attic,76,33.774,-84.2964
1164,Workplay Theatre,US,Birmingham,AL,"Birmingham, AL 35233",https://seatgeek.com/venues/workplay-theatre/tickets/,"Birmingham, AL",0.45986,35233,500 23rd St S,America/Chicago,workplay-theatre,21,33.5098,-86.7971
3599,One World Theatre,US,Austin,TX,"Austin, TX 78746",https://seatgeek.com/venues/one-world-theatre/tickets/,"Austin, TX",0.39773,78746,7701 Bee Caves Road,America/Chicago,one-world-theatre,58,30.3098,-97.8448
10525,Rockin Rodeo,US,Denton,TX,"Denton, TX 76201",https://seatgeek.com/venues/rockin-rodeo/tickets/,"Denton, TX",0.0,76201,1009 Avenue C,America/Chicago,rockin-rodeo,4,33.21,-97.15
8631,Gryphon Theatre,US,Laramie,WY,"Laramie, WY 82070",https://seatgeek.com/venues/gryphon-theatre-1/tickets/,"Laramie, WY",0.31787,82070,710 E. Garfield,America/Denver,gryphon-theatre-1,4,41.3095,-105.588
556,Highline Ballroom,US,New York,NY,"New York, NY 10011",https://seatgeek.com/venues/highline-ballroom/tickets/,"New York, NY",0.50323,10011,431 West 16th Street,America/New_York,highline-ballroom,51,40.7429,-74.0058
841,Infinity Hall,US,Norfolk,CT,"Norfolk, CT 06058",https://seatgeek.com/venues/infinity-hall/tickets/,"Norfolk, CT",0.37553,06058,20 Greenwoods Road West,America/New_York,infinity-hall,27,41.9908,-73.2002
103,North Dakota State Fair,US,Minot,ND,"Minot, ND 58702",https://seatgeek.com/venues/north-dakota-state-fair/tickets/,"Minot, ND",0.4975,58702,2005 Burdick Expressway East,America/Chicago,north-dakota-state-fair,4,48.2314,-101.264
101,Cheyenne Frontier Days,US,Cheyenne,WY,"Cheyenne, WY 82001",https://seatgeek.com/venues/cheyenne-frontier-days/tickets/,"Cheyenne, WY",0.6318,82001,4610 Carey Ave.,America/Denver,cheyenne-frontier-days,13,41.1581,-104.834
766,Emo's Austin,US,Austin,TX,"Austin, TX 78741",https://seatgeek.com/venues/emo-s-austin/tickets/,"Austin, TX",0.492,78741,2015 E Riverside Dr,America/Chicago,emo-s-austin,21,30.2396,-97.7279
4014,South Side Music Hall,US,Dallas,TX,"Dallas, TX 75215",https://seatgeek.com/venues/south-side-music-hall/tickets/,"Dallas, TX",0.56659,75215,1135 S Lamar St,America/Chicago,south-side-music-hall,4,32.7688,-96.798
449,Warehouse Live,US,Houston,TX,"Houston, TX 77003",https://seatgeek.com/venues/warehouse-live/tickets/,"Houston, TX",0.51611,77003,813 St. Emanuel Street,America/Chicago,warehouse-live,32,29.7524,-95.3546
7059,The Joy Theater,US,New Orleans,LA,"New Orleans, LA 70112",https://seatgeek.com/venues/the-joy-theater/tickets/,"New Orleans, LA",0.51649,70112,1200 Canal Street,America/Chicago,the-joy-theater,6,29.9562,-90.0738
448,The Tabernacle,US,Atlanta,GA,"Atlanta, GA 30303",https://seatgeek.com/venues/the-tabernacle/tickets/,"Atlanta, GA",0.61124,30303,152 Luckie Street,America/New_York,the-tabernacle,21,33.7575,-84.3688
814,Terminal 5,US,New York,NY,"New York, NY 10019",https://seatgeek.com/venues/terminal-5/tickets/,"New York, NY",0.64152,10019,610 W 56th St,America/New_York,terminal-5,40,40.7698,-73.9927
517,House of Blues Boston,US,Boston,MA,"Boston, MA 02215",https://seatgeek.com/venues/house-of-blues-boston/tickets/,"Boston, MA",0.62895,02215,15 Lansdowne St.,America/New_York,house-of-blues-boston,43,42.2913,-71.0889
233,Starland Ballroom,US,Sayreville,NJ,"Sayreville, NJ 08872",https://seatgeek.com/venues/starland-ballroom/tickets/,"Sayreville, NJ",0.54541,08872,570 Jernee Mill Road,America/New_York,starland-ballroom,27,40.4364,-74.3495
74411,The Space at Westbury,US,Westbury,NY,"Westbury, NY 11590",https://seatgeek.com/venues/the-space-at-westbury-1/tickets/,"Westbury, NY",0.50068,11590,250 Post Avenue,America/New_York,the-space-at-westbury-1,13,40.7534,-73.5859
292,Ryman Auditorium,US,Nashville,TN,"Nashville, TN 37219",https://seatgeek.com/venues/ryman-auditorium/tickets/,"Nashville, TN",0.66328,37219,116 5th Avenue North,America/Chicago,ryman-auditorium,89,36.161,-86.7787
294,Ruth Eckerd Hall,US,Clearwater,FL,"Clearwater, FL 33759",https://seatgeek.com/venues/ruth-eckerd-hall/tickets/,"Clearwater, FL",0.56566,33759,1111 McMullen Booth Rd.,America/New_York,ruth-eckerd-hall,54,27.9767,-82.7088
239,St. Augustine Amphitheatre,US,Saint Augustine,FL,"Saint Augustine, FL 32084",https://seatgeek.com/venues/st-augustine-amphitheatre/tickets/,"Saint Augustine, FL",0.65749,32084,1340 A1a S,America/New_York,st-augustine-amphitheatre,12,29.8921,-81.3143
2698,Uptown Amphitheatre at NC Music Factory,US,Charlotte,NC,"Charlotte, NC 28206",https://seatgeek.com/venues/uptown-amphitheatre-at-nc-music-factory/tickets/,"Charlotte, NC",0.6002,28206,1000 NC Music Factory Blvd,America/New_York,uptown-amphitheatre-at-nc-music-factory,14,35.2392,-80.8457
347,nTelos Wireless Pavilion,US,Portsmouth,VA,"Portsmouth, VA 23704",https://seatgeek.com/venues/ntelos-wireless-pavilion-1/tickets/,"Portsmouth, VA",0.55649,23704,16 Crawford Circle,America/New_York,ntelos-wireless-pavilion-1,9,36.8312,-76.2979
7679,Sands Bethlehem Event Center,US,Bethlehem,PA,"Bethlehem, PA 18015",https://seatgeek.com/venues/sands-bethlehem-event-center/tickets/,"Bethlehem, PA",0.58555,18015,77 Sands Boulevard,America/New_York,sands-bethlehem-event-center,34,40.6347,-75.3475
1159,St Leonard Fire Department,US,Saint Leonard,MD,"Saint Leonard, MD 20685",https://seatgeek.com/venues/st-leonard-fire-department/tickets/,"Saint Leonard, MD",0.58781,20685,200 Calvert Beach RD,America/New_York,st-leonard-fire-department,3,38.4729,-76.5081
48593,Monroe County Fairgrounds,US,Monroe,MI,"Monroe, MI 48161",https://seatgeek.com/venues/monroe-county-fairgrounds-1/tickets/,"Monroe, MI",0.0,48161,3775 S. CUSTER RD,America/Detroit,monroe-county-fairgrounds-1,1,41.9323,-83.4622
494,Turning Stone Casino,US,Verona,NY,"Verona, NY 13478",https://seatgeek.com/venues/turning-stone-casino/tickets/,"Verona, NY",0.58293,13478,5218 Patrick Road,America/New_York,turning-stone-casino,28,43.1135,-75.5951
197,Wolf Trap,US,Vienna,VA,"Vienna, VA 22182",https://seatgeek.com/venues/wolf-trap/tickets/,"Vienna, VA",0.61113,22182,1551 Trap Road,America/New_York,wolf-trap,36,38.9382,-77.2653
5415,Hamburg Fairgrounds,US,Hamburg,NY,"Hamburg, NY 14075",https://seatgeek.com/venues/hamburg-fairgrounds/tickets/,"Hamburg, NY",0.56339,14075,5600 McKinley Parkway,America/New_York,hamburg-fairgrounds,5,42.7359,-78.8183
320,Ravinia Pavilion,US,Highland Park,IL,"Highland Park, IL 60035",https://seatgeek.com/venues/ravinia-pavilion/tickets/,"Highland Park, IL",0.67489,60035,200 Ravinia Park Rd,America/Chicago,ravinia-pavilion,40,42.1578,-87.7775
273,Starlight Theatre,US,Kansas City,MO,"Kansas City, MO 64132",https://seatgeek.com/venues/starlight-theatre/tickets/,"Kansas City, MO",0.60348,64132,4600 Starlight Rd.,America/Chicago,starlight-theatre,29,39.0083,-94.5348
7962,Central Park Summerstage,US,New York,NY,"New York, NY 10022",https://seatgeek.com/venues/central-park-summerstage/tickets/,"New York, NY",0.62642,10022,830 5th Avenue,America/New_York,central-park-summerstage,14,40.7677,-73.9714
6103,The Fillmore Silver Spring,US,Silver Spring,MD,"Silver Spring, MD 20910",https://seatgeek.com/venues/the-fillmore-silver-spring/tickets/,"Silver Spring, MD",0.55323,20910,8656 Colesville Rd,America/New_York,the-fillmore-silver-spring,32,38.9974,-77.0275
1952,Altar Bar,US,Pittsburgh,PA,"Pittsburgh, PA 15222",https://seatgeek.com/venues/altar-bar/tickets/,"Pittsburgh, PA",0.41803,15222,1620 Penn Avenue,America/New_York,altar-bar,43,40.4492,-79.9868
3242,Expo Five,US,Louisville,KY,"Louisville, KY 40216",https://seatgeek.com/venues/expo-five/tickets/,"Louisville, KY",0.40568,40216,2900 7th Street Rd,America/New_York,expo-five,10,38.1951,-85.7383
7681,Mill City Nights,US,Minneapolis,MN,"Minneapolis, MN 55403",https://seatgeek.com/venues/mill-city-nights/tickets/,"Minneapolis, MN",0.48063,55403,111 5th St N,America/Chicago,mill-city-nights,37,44.9904,-93.2545
859,Sokol Auditorium,US,Omaha,NE,"Omaha, NE 68108",https://seatgeek.com/venues/sokol-auditorium/tickets/,"Omaha, NE",0.46179,68108,2234 S 13th St,America/Chicago,sokol-auditorium,9,41.2385,-95.9333
56436,The District,US,Sioux Falls,SD,"Sioux Falls, SD 57106",https://seatgeek.com/venues/the-district-4/tickets/,"Sioux Falls, SD",0.44452,57106,4521 West Empire Place,America/Chicago,the-district-4,3,43.5175,-96.7249
507,Bismarck Civic Center,US,Bismarck,ND,"Bismarck, ND 58504",https://seatgeek.com/venues/bismarck-civic-center/tickets/,"Bismarck, ND",0.62441,58504,315 South 5th Street,America/Chicago,bismarck-civic-center,13,46.8031,-100.783
1537,Cervantes Masterpiece Ballroom,US,Denver,CO,"Denver, CO 80205",https://seatgeek.com/venues/cervantes-masterpiece-ballroom-1/tickets/,"Denver, CO",0.50263,80205,2637 Welton Street,America/Denver,cervantes-masterpiece-ballroom-1,26,39.7543,-104.979
763,The Black Sheep,US,Colorado Springs,CO,"Colorado Springs, CO 80909",https://seatgeek.com/venues/the-black-sheep-5/tickets/,"Colorado Springs, CO",0.40625,80909,2106 E Platte Ave,America/Denver,the-black-sheep-5,31,38.8373,-104.789
890,The Catalyst,US,Santa Cruz,CA,"Santa Cruz, CA 95060",https://seatgeek.com/venues/the-catalyst/tickets/,"Santa Cruz, CA",0.50404,95060,1011 Pacific Ave,America/Los_Angeles,the-catalyst,76,36.9714,-122.025
11069,Sala Razzmatazz,Spain,Barcelona,Catalonia,"Barcelona, Spain",https://seatgeek.com/venues/sala-razzmatazz/tickets/,"Barcelona, Spain",0.0,08018,Carrer Dels Almogavares 122,Europe/Madrid,sala-razzmatazz,25,41.3976,2.19073
7865,Surrender Nightclub,US,Las Vegas,NV,"Las Vegas, NV 89109",https://seatgeek.com/venues/surrender-nightclub/tickets/,"Las Vegas, NV",0.41724,89109,3131 Las Vegas Blvd S,America/Los_Angeles,surrender-nightclub,31,36.1268,-115.166
425,Masquerade,US,Atlanta,GA,"Atlanta, GA 30308",https://seatgeek.com/venues/masquerade-1/tickets/,"Atlanta, GA",0.47037,30308,695 North Ave NE,America/New_York,masquerade-1,85,33.7709,-84.3645
78512,Ascend Amphitheater,US,Nashville,TN,"Nashville, TN 37203",https://seatgeek.com/venues/ascend-amphitheater/tickets/,"Nashville, TN",0.0,37203,First Street and Demonbreun,America/Chicago,ascend-amphitheater,28,36.1602,-86.7731
346,Ford Field,US,Detroit,MI,"Detroit, MI 48226",https://seatgeek.com/venues/ford-field/tickets/,"Detroit, MI",0.92129,48226,2000 Brush St.,America/Detroit,ford-field,17,42.34,-83.0459
249,NY State Fair,US,Syracuse,NY,"Syracuse, NY 13209",https://seatgeek.com/venues/ny-state-fair/tickets/,"Syracuse, NY",0.70951,13209,581 State Fair Blvd,America/New_York,ny-state-fair,5,43.0638,-76.1941
7853,Legend Valley,US,Thornville,OH,"Thornville, OH 43076",https://seatgeek.com/venues/legend-valley/tickets/,"Thornville, OH",0.52387,43076,7585 Kindle Road,America/New_York,legend-valley,5,39.9366,-82.4037
3701,Isleta Amphitheater,US,Albuquerque,NM,"Albuquerque, NM 87105",https://seatgeek.com/venues/isleta-amphitheater/tickets/,"Albuquerque, NM",0.69012,87105,5601 University Blvd. SE,America/Denver,isleta-amphitheater,18,34.9974,-106.622
1023,Cannery Ballroom,US,Nashville,TN,"Nashville, TN 37203",https://seatgeek.com/venues/cannery-ballroom-1/tickets/,"Nashville, TN",0.50204,37203,1 Cannery Row,America/Chicago,cannery-ballroom-1,11,36.153,-86.7799
829,Center Stage Theatre,US,Atlanta,GA,"Atlanta, GA 30309",https://seatgeek.com/venues/center-stage-theatre/tickets/,"Atlanta, GA",0.53171,30309,1374 West Peachtree St NW,America/New_York,center-stage-theatre,28,33.792,-84.388
669,Trocadero Theatre,US,Philadelphia,PA,"Philadelphia, PA 19107",https://seatgeek.com/venues/trocadero-theatre-1/tickets/,"Philadelphia, PA",0.50176,19107,1003 Arch St,America/New_York,trocadero-theatre-1,13,39.9537,-75.1565
538,9:30 Club,US,Washington,DC,"Washington, DC 20001",https://seatgeek.com/venues/9-30-club/tickets/,"Washington, DC",0.5601,20001,815 V St. NW,America/New_York,9-30-club,58,38.9178,-77.0236
901,Chameleon Club,US,Lancaster,PA,"Lancaster, PA 17603",https://seatgeek.com/venues/chameleon-club/tickets/,"Lancaster, PA",0.4274,17603,223 N. Water St,America/New_York,chameleon-club,23,40.0415,-76.3092
515,House of Blues,US,Chicago,IL,"Chicago, IL 60654",https://seatgeek.com/venues/house-of-blues-1/tickets/,"Chicago, IL",0.56385,60654,329 N Dearborn St,America/Chicago,house-of-blues-1,40,41.8881,-87.6294
542,The Rave/Eagles Club/Eagles Ballroom,US,Milwaukee,WI,"Milwaukee, WI 53233",https://seatgeek.com/venues/the-rave-eagles-club-eagles-ballroom/tickets/,"Milwaukee, WI",0.53851,53233,2401 W. Wisconsin Avenue,America/Chicago,the-rave-eagles-club-eagles-ballroom,30,43.0382,-87.9433
920,Varsity Theater,US,Minneapolis,MN,"Minneapolis, MN 55414",https://seatgeek.com/venues/varsity-theater/tickets/,"Minneapolis, MN",0.4975,55414,1308 4th St SE,America/Chicago,varsity-theater,25,44.9807,-93.2369
1221,Sherman Theater,US,Stroudsburg,PA,"Stroudsburg, PA 18360",https://seatgeek.com/venues/sherman-theater/tickets/,"Stroudsburg, PA",0.49585,18360,524 Main Street,America/New_York,sherman-theater,26,40.9861,-75.1914
3076,State Theatre,US,Portland,ME,"Portland, ME 04101",https://seatgeek.com/venues/state-theatre-15/tickets/,"Portland, ME",0.51494,04101,609 Congress St,America/New_York,state-theatre-15,25,43.6541,-70.2623
2081,Gillioz Theatre,US,Springfield,MO,"Springfield, MO 65806",https://seatgeek.com/venues/gillioz-theatre/tickets/,"Springfield, MO",0.4676,65806,325 Park Central East,America/Chicago,gillioz-theatre,13,37.2092,-93.2904
3696,Kay Yeager Coliseum,US,Wichita Falls,TX,"Wichita Falls, TX 76301",https://seatgeek.com/venues/kay-yeager-coliseum/tickets/,"Wichita Falls, TX",0.5676,76301,1000 5th St.,America/Chicago,kay-yeager-coliseum,3,33.9158,-98.4977
2201,7 Flags Event Center,US,Clive,IA,"Clive, IA 50325",https://seatgeek.com/venues/7-flags-event-center/tickets/,"Clive, IA",0.50026,50325,2100 NW 100th Street,America/Chicago,7-flags-event-center,4,41.6118,-93.7584
56291,Hard Rock Casino Vancouver,Canada,Coquitlam,BC,"Coquitlam, Canada",https://seatgeek.com/venues/hard-rock-casino-vancouver/tickets/,"Coquitlam, Canada",0.49705,V3K 6W3,2080 United Boulevard,America/Vancouver,hard-rock-casino-vancouver,21,49.2276,-122.838
543,Roseland Theater,US,Portland,OR,"Portland, OR 97209",https://seatgeek.com/venues/roseland-theater/tickets/,"Portland, OR",0.52989,97209,8 Nw Sixth Ave.,America/Los_Angeles,roseland-theater,36,45.5234,-122.676
2213,Dennison Theatre,US,Missoula,MT,"Missoula, MT 59812",https://seatgeek.com/venues/dennison-theatre/tickets/,"Missoula, MT",0.48626,59812,32 Campus Drive,America/Denver,dennison-theatre,7,46.8616,-113.982
175,Oak Mountain Amphitheatre,US,Pelham,AL,"Pelham, AL 35124",https://seatgeek.com/venues/oak-mountain-amphitheatre/tickets/,"Pelham, AL",0.75887,35124,1000 Amphitheatre Dr,America/Chicago,oak-mountain-amphitheatre,6,33.3314,-86.7884
4980,Lewis & Clark County Fairgrounds,US,Helena,MT,"Helena, MT 59602",https://seatgeek.com/venues/lewis-clark-county-fairgrounds/tickets/,"Helena, MT",0.0,59602,98 West Custer Avenue,America/Denver,lewis-clark-county-fairgrounds,2,47.1844,-112.331
69202,Grey Eagle Resort and Casino,Canada,Calgary,AB,"Calgary, Canada",https://seatgeek.com/venues/grey-eagle-resort-and-casino/tickets/,"Calgary, Canada",0.44345,T3E 3X8,3777 Grey Eagle Dr.,America/Edmonton,grey-eagle-resort-and-casino,15,51.0486,-114.071
47565,Douglas County Fairgrounds,US,Roseburg,OR,"Roseburg, OR 97470",https://seatgeek.com/venues/douglas-county-fairgrounds-2/tickets/,"Roseburg, OR",0.0,97470,2100 SW Frear St.,America/Los_Angeles,douglas-county-fairgrounds-2,4,43.1947,-123.359
5756,Deadwood Mountain Grand,US,Deadwood,SD,"Deadwood, SD 57732",https://seatgeek.com/venues/deadwood-mountain-grand/tickets/,"Deadwood, SD",0.49385,57732,1906 Deadwood Mountain Drive,America/Denver,deadwood-mountain-grand,22,44.3764,-103.73
5497,Memphis Botanic Garden,US,Memphis,TN,"Memphis, TN 38117",https://seatgeek.com/venues/memphis-botanic-garden/tickets/,"Memphis, TN",0.56668,38117,750 Cherry Road,America/Chicago,memphis-botanic-garden,5,35.1497,-90.0489
1195,Fox Theatre Detroit,US,Detroit,MI,"Detroit, MI 48201",https://seatgeek.com/venues/fox-theatre-detroit/tickets/,"Detroit, MI",0.63881,48201,2211 Woodward Ave,America/New_York,fox-theatre-detroit,52,42.3382,-83.0525
5778,Dell Music Center,US,Philadelphia,PA,"Philadelphia, PA 19132",https://seatgeek.com/venues/dell-music-center/tickets/,"Philadelphia, PA",0.44505,19132,1 Strawberry Mansion Bridge Drive,America/New_York,dell-music-center,11,39.9954,-75.1908
661,Chene Park,US,Detroit,MI,"Detroit, MI 48207",https://seatgeek.com/venues/chene-park/tickets/,"Detroit, MI",0.48758,48207,2600 E Atwater,America/New_York,chene-park,35,42.3332,-83.0259
1192,Macon Centreplex,US,Macon,GA,"Macon, GA 31217",https://seatgeek.com/venues/macon-centreplex/tickets/,"Macon, GA",0.59734,31217,200 Coliseum Drive,America/New_York,macon-centreplex,5,32.8397,-83.6276
4349,Landers Center,US,Southaven,MS,"Southaven, MS 38671",https://seatgeek.com/venues/landers-center/tickets/,"Southaven, MS",0.62554,38671,4560 Venture Dr,America/Chicago,landers-center,5,34.9272,-89.9965
1202,Star Plaza Theatre,US,Merrillville,IN,"Merrillville, IN 46410",https://seatgeek.com/venues/star-plaza-theatre/tickets/,"Merrillville, IN",0.52677,46410,8001 Delaware Place,America/Indiana/Indianapolis,star-plaza-theatre,10,41.4737,-87.3306
1447,Von Braun Center Concert Hall,US,Huntsville,AL,"Huntsville, AL 35801",https://seatgeek.com/venues/von-braun-center-concert-hall/tickets/,"Huntsville, AL",0.53758,35801,700 Monroe Street,America/Chicago,von-braun-center-concert-hall,37,34.7273,-86.5903
869,Cedar Park Center,US,Cedar Park,TX,"Cedar Park, TX 78613",https://seatgeek.com/venues/cedar-park-center/tickets/,"Cedar Park, TX",0.58008,78613,2100 Avenue of the Stars,America/Chicago,cedar-park-center,17,30.54,-97.82
43655,Buffalo Chip Campground,US,Sturgis,SD,"Sturgis, SD 57785",https://seatgeek.com/venues/buffalo-chip-campground/tickets/,"Sturgis, SD",0.0,57785,20603 132nd Ave,America/Denver,buffalo-chip-campground,5,44.4021,-103.408
73091,Oak Ridge Park,US,Clark,NJ,"Clark, NJ 07066",https://seatgeek.com/venues/oak-ridge-park/tickets/,"Clark, NJ",0.0,07066,136 Oak Ridge Road,America/New_York,oak-ridge-park,5,40.6088,-74.3447
38996,Carroll Park,US,Baltimore,MD,"Baltimore, MD 21230",https://seatgeek.com/venues/carroll-park/tickets/,"Baltimore, MD",0.59962,21230,1 Washington Blvd,America/New_York,carroll-park,1,39.2917,-76.5891
481,Jacobs Pavilion at Nautica,US,Cleveland,OH,"Cleveland, OH 44113",https://seatgeek.com/venues/jacobs-pavilion-at-nautica/tickets/,"Cleveland, OH",0.62795,44113,2014 Sycamore St.,America/New_York,jacobs-pavilion-at-nautica,15,41.4959,-81.7031
442,The Fillmore Detroit,US,Detroit,MI,"Detroit, MI 48201",https://seatgeek.com/venues/the-fillmore-detroit/tickets/,"Detroit, MI",0.61641,48201,2115 Woodward,America/New_York,the-fillmore-detroit,16,42.3378,-83.0515
631,Kellogg Arena,US,Battle Creek,MI,"Battle Creek, MI 49017",https://seatgeek.com/venues/kellogg-arena/tickets/,"Battle Creek, MI",0.54534,49017,1 McCamly Sq,America/New_York,kellogg-arena,1,42.3188,-85.1861
1980,Prairie Capital Convention Center,US,Springfield,IL,"Springfield, IL 62701",https://seatgeek.com/venues/prairie-capital-convention-center/tickets/,"Springfield, IL",0.57811,62701,1 Convention Center Plaza,America/Chicago,prairie-capital-convention-center,1,39.8005,-89.6448
713,Arvest Bank Theatre at The Midland,US,Kansas City,MO,"Kansas City, MO 64105",https://seatgeek.com/venues/arvest-bank-theatre-at-the-midland/tickets/,"Kansas City, MO",0.57696,64105,1228 Main St.,America/Chicago,arvest-bank-theatre-at-the-midland,33,39.0989,-94.5835
3658,Shreveport Municipal Memorial Auditorium,US,Shreveport,LA,"Shreveport, LA 71101",https://seatgeek.com/venues/shreveport-municipal-memorial-auditorium/tickets/,"Shreveport, LA",0.56108,71101,705 Elvis Presley Avenue,America/Chicago,shreveport-municipal-memorial-auditorium,5,32.5078,-93.7534
423,Grand Sierra Theatre,US,Reno,NV,"Reno, NV 89595",https://seatgeek.com/venues/grand-sierra-theatre/tickets/,"Reno, NV",0.52846,89595,2500 East Second Street,America/Los_Angeles,grand-sierra-theatre,9,39.5895,-120.367
132,Oracle Arena,US,Oakland,CA,"Oakland, CA 94621",https://seatgeek.com/venues/oracle-arena/tickets/,"Oakland, CA",0.83132,94621,7000 Coliseum Way,America/Los_Angeles,oracle-arena,28,37.7496,-122.201
1328,Viejas Arena,US,San Diego,CA,"San Diego, CA 92182",https://seatgeek.com/venues/viejas-arena/tickets/,"San Diego, CA",0.73185,92182,5500 Canyon Crest Drive,America/Los_Angeles,viejas-arena,10,32.7772,-117.076
697,Anselmo Valencia Amphitheater,US,Tucson,AZ,"Tucson, AZ 85746",https://seatgeek.com/venues/anselmo-valencia-amphitheater/tickets/,"Tucson, AZ",0.55526,85746,5655 West Valencia,America/Phoenix,anselmo-valencia-amphitheater,13,32.131,-111.087
254,Sandia Casino Amphitheater,US,Albuquerque,NM,"Albuquerque, NM 87113",https://seatgeek.com/venues/sandia-casino-amphitheater/tickets/,"Albuquerque, NM",0.60366,87113,30 Rainbow Road,America/Denver,sandia-casino-amphitheater,5,35.2062,-106.564
3416,Comerica Theatre,US,Phoenix,AZ,"Phoenix, AZ 85003",https://seatgeek.com/venues/comerica-theatre/tickets/,"Phoenix, AZ",0.67397,85003,400 West Washington Street,America/Phoenix,comerica-theatre,25,33.4488,-112.08
1042,El Paso County Coliseum,US,El Paso,TX,"El Paso, TX 79905",https://seatgeek.com/venues/el-paso-county-coliseum/tickets/,"El Paso, TX",0.54834,79905,4100 East Paisano Street,America/Denver,el-paso-county-coliseum,22,31.7674,-106.441
222,The Venue At Ucf,US,Orlando,FL,"Orlando, FL 32816",https://seatgeek.com/venues/the-venue-at-ucf-1/tickets/,"Orlando, FL",0.61126,32816,4000 Central Florida Boulevard,America/New_York,the-venue-at-ucf-1,18,28.6074,-81.1974
34105,Los Angeles Center Studios,US,Los Angeles,CA,"Los Angeles, CA 90017",https://seatgeek.com/venues/los-angeles-center-studios/tickets/,"Los Angeles, CA",0.68788,90017,1201 West Fifth Street,America/Los_Angeles,los-angeles-center-studios,3,34.1513,-118.408
2150,Port City Music Hall,US,Portland,ME,"Portland, ME 04101",https://seatgeek.com/venues/port-city-music-hall/tickets/,"Portland, ME",0.45342,04101,504 Congress Street,America/New_York,port-city-music-hall,30,43.6563,-70.2606
9830,Singapore Indoor Stadium,Singapore,Singapore,??,"Singapore, Singapore",https://seatgeek.com/venues/singapore-indoor-stadium/tickets/,"Singapore, Singapore",0.0,397691,2 Stadium Walk,Asia/Singapore,singapore-indoor-stadium,9,1.3009,103.874
43610,Olympic Gymnastics Arena,South Korea,Seoul,,"Seoul, South Korea",https://seatgeek.com/venues/olympic-gymnastics-arena-1/tickets/,"Seoul, South Korea",0.0,,,Asia/Seoul,olympic-gymnastics-arena-1,2,37.515,127.016
56188,Complejo al Rio,Argentina,Buenos Aires,,"Buenos Aires, Argentina",https://seatgeek.com/venues/complejo-al-rio/tickets/,"Buenos Aires, Argentina",0.0,C1417,Laprida y Bartolome Cruz Vicente Lopez,America/Argentina/Buenos_Aires,complejo-al-rio,1,-34.8536,-58.5232
29804,HSBC Arena,Brazil,Rio de Janeiro,,"Rio de Janeiro, Brazil",https://seatgeek.com/venues/hsbc-arena-2/tickets/,"Rio de Janeiro, Brazil",0.0,3035-5200,,America/Sao_Paulo,hsbc-arena-2,1,-22.9083,-43.1971
8114,Palacio de los Deportes,Mexico,Mexico City,Dif,"Mexico City, Mexico",https://seatgeek.com/venues/palacio-de-los-deportes/tickets/,"Mexico City, Mexico",0.0,08400,1 Av. Viaducto Rio de la Piedad,America/Mexico_City,palacio-de-los-deportes,20,19.3226,-99.125
58430,Estadio Unico de La Plata,Argentina,La Plata,,"La Plata, Argentina",https://seatgeek.com/venues/estadio-unico-de-la-plata/tickets/,"La Plata, Argentina",0.0,B1900,"La Plata, Argentina",America/Cordoba,estadio-unico-de-la-plata,1,-34.914,-57.9891
78031,Arena do Gremio,Brazil,Porto Alegre,,"Porto Alegre, Brazil",https://seatgeek.com/venues/arena-do-gremio/tickets/,"Porto Alegre, Brazil",0.0,90250-590,"Avenida Padre Leopoldo Brentano, 110 - Humaita",America/Sao_Paulo,arena-do-gremio,1,-29.974,-51.195
9436,Morumbi Stadium,Brazil,Sao Paulo,SP,"Sao Paulo, Brazil",https://seatgeek.com/venues/morumbi-stadium/tickets/,"Sao Paulo, Brazil",0.0,55,"PraASSa Roberto Gomes Pedrosa, 1 Jardim Leonor",America/Sao_Paulo,morumbi-stadium,1,-23.6001,-46.7201
55770,Estadio Nacional,Brazil,Brasilia,,"Brasilia, Brazil",https://seatgeek.com/venues/estadio-nacional-2/tickets/,"Brasilia, Brazil",0.68032,70070701,Srpn-estadio Mane Garrincha,America/Sao_Paulo,estadio-nacional-2,1,-15.7835,-47.8992
41995,Estadio Mineirao,Brazil,Belo Horizonte,Minas Gerais,"Belo Horizonte, Brazil",https://seatgeek.com/venues/estadio-mineirao/tickets/,"Belo Horizonte, Brazil",0.73665,31275000,"Avenida Antonio Abrahao Caram, 1001 - Pampulha",America/Sao_Paulo,estadio-mineirao,1,-19.8659,-43.9711
79097,Maracana Stadium At Maracana Olympic Complex,Brazil,Rio de Janeiro,,"Rio de Janeiro, Brazil",https://seatgeek.com/venues/maracana-stadium-at-maracana-olympic-complex/tickets/,"Rio de Janeiro, Brazil",0.0,20271-130,Rua Professor Eurico Rabelo Maracana,America/Sao_Paulo,maracana-stadium-at-maracana-olympic-complex,1,-22.9139,-43.231
7186,Foro Sol,Mexico,Mexico City,Dif,"Mexico City, Mexico",https://seatgeek.com/venues/foro-sol/tickets/,"Mexico City, Mexico",0.0,08400,260 Calle Viaducto Rd,America/Mexico_City,foro-sol,2,19.4051,-99.0956
4098,Hyde Park,UK,London,London,"London, UK",https://seatgeek.com/venues/hyde-park/tickets/,"London, UK",0.7392,W2 2UH,W. Carriage Drive,Europe/London,hyde-park,5,51.5073,-0.16573
10456,York Barbican Centre,UK,York,North Yorkshire,"York, UK",https://seatgeek.com/venues/york-barbican-centre/tickets/,"York, UK",0.41818,YO10 4NT,1 Paragon St.,Europe/London,york-barbican-centre,28,53.9538,-1.07529
4734,Liverpool Empire Theatre,UK,Liverpool,Lancashire,"Liverpool, UK",https://seatgeek.com/venues/liverpool-empire-theatre/tickets/,"Liverpool, UK",0.38349,L1 1JE,Lime Street,Europe/London,liverpool-empire-theatre,22,53.4996,-3.00543
3305,Plymouth Pavilions,UK,Plymouth,Devon,"Plymouth, UK",https://seatgeek.com/venues/plymouth-pavilions/tickets/,"Plymouth, UK",0.45074,PL1 3LF,Millbay Road,Europe/London,plymouth-pavilions,39,50.3674,-4.15708
9544,Symphony Hall,UK,Birmingham,War,"Birmingham, UK",https://seatgeek.com/venues/symphony-hall/tickets/,"Birmingham, UK",0.44213,B1 2EA,1 Lister Street,Europe/London,symphony-hall,44,52.4884,-1.88651
4753,Cambridge Corn Exchange,UK,Cambridge,Cambridgeshire,"Cambridge, UK",https://seatgeek.com/venues/cambridge-corn-exchange/tickets/,"Cambridge, UK",0.45314,CB2 3QB,3 Parson's Court,Europe/London,cambridge-corn-exchange,40,52.2044,0.11945
4795,Southend Cliffs Pavilion,UK,Westcliff-On-Sea,Ess,"Westcliff-On-Sea, UK",https://seatgeek.com/venues/southend-cliffs-pavilion/tickets/,"Westcliff-On-Sea, UK",0.43492,SS0 7RA,32525 Ski Hill Road,Europe/London,southend-cliffs-pavilion,34,51.5355,0.69783
10526,Waterfront Hall,ND,Belfast,Bfs,"Belfast, ND",https://seatgeek.com/venues/waterfront-hall-2/tickets/,"Belfast, ND",0.39537,BT1 3LP,2 Lanyon Place,Europe/London,waterfront-hall-2,16,54.5961,-5.92015
52433,Riverfront Park - Salem,US,Salem,OR,"Salem, OR 97301",https://seatgeek.com/venues/riverfront-park-salem-1/tickets/,"Salem, OR",0.0,97301,101 Front St,America/Los_Angeles,riverfront-park-salem-1,4,44.9408,-123.042
14537,Blarney Island,US,Antioch,IL,"Antioch, IL 60002",https://seatgeek.com/venues/blarney-island/tickets/,"Antioch, IL",0.0,60002,27843 West Grass Lake Road,America/Chicago,blarney-island,3,42.426,-88.1611
61598,Northeast Park,US,Kewanee,IL,"Kewanee, IL 61443",https://seatgeek.com/venues/northeast-park-1/tickets/,"Kewanee, IL",0.0,61443,1015 N Elm St.,America/Chicago,northeast-park-1,1,41.256,-89.9221
9809,Spokane Interstate Fairgrounds,US,Spokane,WA,"Spokane, WA 99202",https://seatgeek.com/venues/spokane-interstate-fairgrounds/tickets/,"Spokane, WA",0.49935,99202,404 North Havana Street,America/Los_Angeles,spokane-interstate-fairgrounds,5,47.66,-117.35
1711,Knitting Factory Concert House,US,Reno,NV,"Reno, NV 89501",https://seatgeek.com/venues/knitting-factory-concert-house-2/tickets/,"Reno, NV",0.4537,89501,211 N Virginia St,America/Los_Angeles,knitting-factory-concert-house-2,22,39.5271,-119.813
3054,Duquoin State Fair,US,Du Quoin,IL,"Du Quoin, IL 62832",https://seatgeek.com/venues/duquoin-state-fair/tickets/,"Du Quoin, IL",0.43625,62832,655 Executive Dr,America/Chicago,duquoin-state-fair,9,37.9803,-89.2254
328,The Orange Peel,US,Asheville,NC,"Asheville, NC 28801",https://seatgeek.com/venues/the-orange-peel/tickets/,"Asheville, NC",0.49949,28801,101 Biltmore Ave,America/New_York,the-orange-peel,26,35.4633,-82.3052
14640,Metropolitan Park,US,Jacksonville,FL,"Jacksonville, FL 32202",https://seatgeek.com/venues/metropolitan-park/tickets/,"Jacksonville, FL",0.53413,32202,1410 Gator Bowl Blvd.,America/New_York,metropolitan-park,1,30.3223,-81.6388
11657,Luxor,Germany,Koln,NW,"Koln, Germany",https://seatgeek.com/venues/luxor/tickets/,"Koln, Germany",0.0,50674,Luxemburger Strasse 40,Europe/Berlin,luxor,31,50.9274,6.93936
17580,Bibelot,Netherlands,Dordrecht,ZH,"Dordrecht, Netherlands",https://seatgeek.com/venues/bibelot/tickets/,"Dordrecht, Netherlands",0.0,3311 RR,Wijnstraat 117,Europe/Amsterdam,bibelot,4,51.818,4.66841
1265,Pantages Theatre,US,Minneapolis,MN,"Minneapolis, MN 55403",https://seatgeek.com/venues/pantages-theatre-1/tickets/,"Minneapolis, MN",0.53162,55403,710 Hennepin Avenue,America/Chicago,pantages-theatre-1,31,44.9776,-93.2754
684,Music Center at Strathmore,US,North Bethesda,MD,"North Bethesda, MD 20852",https://seatgeek.com/venues/music-center-at-strathmore/tickets/,"North Bethesda, MD",0.57777,20852,5301 Tuckerman Lane,America/New_York,music-center-at-strathmore,35,39.026,-77.1013
364,Rams Head Live,US,Baltimore,MD,"Baltimore, MD 21202",https://seatgeek.com/venues/rams-head-live/tickets/,"Baltimore, MD",0.51354,21202,20 Market Place,America/New_York,rams-head-live,32,39.2885,-76.6068
3212,Straz Center Ferguson Hall,US,Tampa,FL,"Tampa, FL 33602",https://seatgeek.com/venues/straz-center-ferguson-hall/tickets/,"Tampa, FL",0.49575,33602,1010 North W.C. MacInnes Place,America/New_York,straz-center-ferguson-hall,11,27.9516,-82.4639
