id,name,country,city,state,extended_address,url,display_location,score,postal_code,address,timezone,slug,event_count,lat,lon
4763,"Rumsey Playfield, Central Park",US,New York,NY,"New York, NY 10022",https://seatgeek.com/venues/rumsey-playfield-central-park/tickets/,"New York, NY",0.66279,10022,East 72nd Street and Park Drive N,America/New_York,rumsey-playfield-central-park,17,40.7711,-73.9639
8034,Echo Beach,Canada,Toronto,ON,"Toronto, Canada",https://seatgeek.com/venues/echo-beach/tickets/,"Toronto, Canada",0.59532,M6K 3L3,909 Lakeshore Blvd,America/Toronto,echo-beach,8,43.6589,-79.3284
999,Aragon Ballroom,US,Chicago,IL,"Chicago, IL 60640",https://seatgeek.com/venues/aragon-ballroom/tickets/,"Chicago, IL",0.65737,60640,1106 W. Lawrence Ave.,America/Chicago,aragon-ballroom,11,41.9694,-87.6579
4112,Sporting Park,US,Kansas City,KS,"Kansas City, KS 66111",https://seatgeek.com/venues/sporting-park/tickets/,"Kansas City, KS",0.70548,66111,1 Sporting Way,America/Chicago,sporting-park,9,39.1232,-94.8242
51246,Skyline Stage at The Mann,US,Philadelphia,PA,"Philadelphia, PA 19131",https://seatgeek.com/venues/skyline-stage-at-the-mann/tickets/,"Philadelphia, PA",0.0,19131,5201 Parkside Avenue,America/New_York,skyline-stage-at-the-mann,3,39.98,-75.22
16077,Echostage,US,Washington,DC,"Washington, DC 20018",https://seatgeek.com/venues/echostage-1/tickets/,"Washington, DC",0.63168,20018,2135 Queens Chapel Road NE,America/New_York,echostage-1,22,38.9197,-76.9727
517,House of Blues Boston,US,Boston,MA,"Boston, MA 02215",https://seatgeek.com/venues/house-of-blues-boston/tickets/,"Boston, MA",0.62895,02215,15 Lansdowne St.,America/New_York,house-of-blues-boston,43,42.2913,-71.0889
5120,Parc Jean-Drapeau,Canada,Montreal,QC,"Montreal, Canada",https://seatgeek.com/venues/parc-jean-drapeau/tickets/,"Montreal, Canada",0.63345,H3C 1A9,160 Chemin Tour,America/Toronto,parc-jean-drapeau,11,45.5137,-73.5342
170,Cricket Wireless Amphitheater - KS,US,Bonner Springs,KS,"Bonner Springs, KS 66012",https://seatgeek.com/venues/cricket-wireless-amphitheater-ks/tickets/,"Bonner Springs, KS",0.67718,66012,633 North 130th Street,America/Chicago,cricket-wireless-amphitheater-ks,7,39.1102,-94.8816
85,BOK Center,US,Tulsa,OK,"Tulsa, OK 74103",https://seatgeek.com/venues/bok-center/tickets/,"Tulsa, OK",0.76012,74103,200 South Denver,America/Chicago,bok-center,37,36.1531,-95.9951
55,The Cynthia Woods Mitchell Pavilion,US,The Woodlands,TX,"The Woodlands, TX 77380",https://seatgeek.com/venues/the-cynthia-woods-mitchell-pavilion-1/tickets/,"The Woodlands, TX",0.74929,77380,2005 Lake Robbins Drive,America/Chicago,the-cynthia-woods-mitchell-pavilion-1,29,30.1641,-95.4626
54,Gexa Energy Pavilion,US,Dallas,TX,"Dallas, TX 75210",https://seatgeek.com/venues/gexa-energy-pavilion/tickets/,"Dallas, TX",0.77909,75210,1818 1st Ave,America/Chicago,gexa-energy-pavilion,25,32.77,-96.76
42026,Austin360 Amphitheater,US,Austin,TX,"Austin, TX 78617",https://seatgeek.com/venues/austin360-amphitheater-1/tickets/,"Austin, TX",0.77984,78617,9201 Circuit of the Americas Blvd,America/Chicago,austin360-amphitheater-1,22,30.1329,-97.6407
3701,Isleta Amphitheater,US,Albuquerque,NM,"Albuquerque, NM 87105",https://seatgeek.com/venues/isleta-amphitheater/tickets/,"Albuquerque, NM",0.69012,87105,5601 University Blvd. SE,America/Denver,isleta-amphitheater,18,34.9974,-106.622
3703,Fiddler's Green Amphitheatre,US,Englewood,CO,"Englewood, CO 80111",https://seatgeek.com/venues/fiddler-s-green-amphitheatre/tickets/,"Englewood, CO",0.7358,80111,6350 Greenwood Plaza Blvd,America/Denver,fiddler-s-green-amphitheatre,14,39.6008,-104.894
77,USANA Amphitheatre,US,West Valley City,UT,"West Valley City, UT 84118",https://seatgeek.com/venues/usana-amphitheatre/tickets/,"West Valley City, UT",0.64047,84118,5150 South 6055 West,America/Denver,usana-amphitheatre,17,40.6577,-112.035
3062,Amphitheater Northwest,US,Ridgefield,WA,"Ridgefield, WA 98642",https://seatgeek.com/venues/amphitheater-northwest/tickets/,"Ridgefield, WA",0.68383,98642,17200 NE Delfel Road,America/Los_Angeles,amphitheater-northwest,7,45.7471,-122.663
148,White River Amphitheatre,US,Auburn,WA,"Auburn, WA 98092",https://seatgeek.com/venues/white-river-amphitheatre/tickets/,"Auburn, WA",0.69485,98092,40601 Auburn Enumclaw Road,America/Los_Angeles,white-river-amphitheatre,9,47.2369,-122.108
65,Hersheypark Stadium,US,Hershey,PA,"Hershey, PA 17033",https://seatgeek.com/venues/hersheypark-stadium/tickets/,"Hershey, PA",0.81493,17033,100 W. Hersheypark Dr.,America/New_York,hersheypark-stadium,6,40.288,-76.6545
66917,Atlantic City Beach,US,Atlantic City,NJ,"Atlantic City, NJ 08401",https://seatgeek.com/venues/atlantic-city-beach/tickets/,"Atlantic City, NJ",0.53993,08401,3211 Boardwalk,America/New_York,atlantic-city-beach,3,39.3507,-74.4489
8680,Ben Franklin Parkway,US,Philadelphia,PA,"Philadelphia, PA 19130",https://seatgeek.com/venues/ben-franklin-parkway/tickets/,"Philadelphia, PA",0.79195,19130,1 Benjamin Franklin Parkway,America/New_York,ben-franklin-parkway,4,39.9538,-75.1386
735,Hershey Theatre,US,Hershey,PA,"Hershey, PA 17033",https://seatgeek.com/venues/hershey-theatre/tickets/,"Hershey, PA",0.58047,17033,15 E Caracas Ave,America/New_York,hershey-theatre,67,40.2886,-76.6509
249,NY State Fair,US,Syracuse,NY,"Syracuse, NY 13209",https://seatgeek.com/venues/ny-state-fair/tickets/,"Syracuse, NY",0.70951,13209,581 State Fair Blvd,America/New_York,ny-state-fair,5,43.0638,-76.1941
814,Terminal 5,US,New York,NY,"New York, NY 10019",https://seatgeek.com/venues/terminal-5/tickets/,"New York, NY",0.64152,10019,610 W 56th St,America/New_York,terminal-5,40,40.7698,-73.9927
92,Mohegan Sun Arena,US,Uncasville,CT,"Uncasville, CT 06382",https://seatgeek.com/venues/mohegan-sun-arena/tickets/,"Uncasville, CT",0.74636,06382,1 Mohegan Sun Boulevard,America/New_York,mohegan-sun-arena,37,41.4915,-72.0913
515,House of Blues,US,Chicago,IL,"Chicago, IL 60654",https://seatgeek.com/venues/house-of-blues-1/tickets/,"Chicago, IL",0.56385,60654,329 N Dearborn St,America/Chicago,house-of-blues-1,40,41.8881,-87.6294
1369,Nob Hill Masonic Auditorium,US,San Francisco,CA,"San Francisco, CA 94108",https://seatgeek.com/venues/nob-hill-masonic-auditorium/tickets/,"San Francisco, CA",0.69201,94108,1111 California St,America/Los_Angeles,nob-hill-masonic-auditorium,22,37.7912,-122.413
457,California Mid-State Fair,US,Paso Robles,CA,"Paso Robles, CA 93446",https://seatgeek.com/venues/california-mid-state-fair/tickets/,"Paso Robles, CA",0.67835,93446,2198 Riverside Ave.,America/Los_Angeles,california-mid-state-fair,11,35.6384,-120.686
465,Hollywood Palladium,US,Los Angeles,CA,"Los Angeles, CA 90028",https://seatgeek.com/venues/hollywood-palladium/tickets/,"Los Angeles, CA",0.64176,90028,6215 Sunset Blvd,America/Los_Angeles,hollywood-palladium,18,34.0983,-118.324
675,Delaware State Fair,US,Harrington,DE,"Harrington, DE 19952",https://seatgeek.com/venues/delaware-state-fair/tickets/,"Harrington, DE",0.64925,19952,644 Fairground Road,America/New_York,delaware-state-fair,9,38.912,-75.5731
60307,JBL Live at Pier 97,US,New York,NY,"New York, NY 10019",https://seatgeek.com/venues/jbl-live-at-pier-97/tickets/,"New York, NY",0.67761,10019,Hudson River Park at W58th St,America/New_York,jbl-live-at-pier-97,4,40.7128,-74.0059
340,Celeste Center,US,Columbus,OH,"Columbus, OH 43211",https://seatgeek.com/venues/celeste-center/tickets/,"Columbus, OH",0.60864,43211,717 East 17th Avenue,America/New_York,celeste-center,12,39.9612,-82.9988
5247,Festival Pier at Penn's Landing,US,Philadelphia,PA,"Philadelphia, PA 19106",https://seatgeek.com/venues/festival-pier-at-penn-s-landing/tickets/,"Philadelphia, PA",0.6446,19106,201 South Columbus Boulevard,America/New_York,festival-pier-at-penn-s-landing,16,39.9453,-75.1414
4093,Blue Hills Bank Pavilion,US,Boston,MA,"Boston, MA 02210",https://seatgeek.com/venues/blue-hills-bank-pavilion/tickets/,"Boston, MA",0.68784,02210,290 Northern Ave,America/New_York,blue-hills-bank-pavilion,35,42.3487,-71.0365
1607,Indiana Farmers Coliseum,US,Indianapolis,IN,"Indianapolis, IN 46205",https://seatgeek.com/venues/indiana-farmers-coliseum/tickets/,"Indianapolis, IN",0.53633,46205,1202 E. 38th St.,America/Indiana/Indianapolis,indiana-farmers-coliseum,8,39.8258,-86.1371
5415,Hamburg Fairgrounds,US,Hamburg,NY,"Hamburg, NY 14075",https://seatgeek.com/venues/hamburg-fairgrounds/tickets/,"Hamburg, NY",0.56339,14075,5600 McKinley Parkway,America/New_York,hamburg-fairgrounds,5,42.7359,-78.8183
44215,TBA,US,Philadelphia,PA,"Philadelphia, PA TBA",https://seatgeek.com/venues/tba-112/tickets/,"Philadelphia, PA",0.0,TBA,6841 Germantown Ave,America/New_York,tba-112,1,40.0554,-75.187
79,Susquehanna Bank Center,US,Camden,NJ,"Camden, NJ 08103",https://seatgeek.com/venues/susquehanna-bank-center/tickets/,"Camden, NJ",0.77718,08103,1 Harbor Blvd.,America/New_York,susquehanna-bank-center,22,39.9408,-75.1296
3702,Jiffy Lube Live,US,Bristow,VA,"Bristow, VA 20136",https://seatgeek.com/venues/jiffy-lube-live/tickets/,"Bristow, VA",0.76776,20136,7800 Cellar Door Drive,America/New_York,jiffy-lube-live,15,38.7858,-77.5879
72,Farm Bureau Live at Virginia Beach,US,Virginia Beach,VA,"Virginia Beach, VA 23456",https://seatgeek.com/venues/farm-bureau-live-at-virginia-beach/tickets/,"Virginia Beach, VA",0.7224,23456,3550 Cellar Door Way,America/New_York,farm-bureau-live-at-virginia-beach,13,36.7687,-76.102
48,Gorge Amphitheatre,US,George,WA,"George, WA 98848",https://seatgeek.com/venues/gorge-amphitheatre/tickets/,"George, WA",0.75107,98848,754 Silica Road NW,America/Los_Angeles,gorge-amphitheatre,15,47.079,-119.856
7860,Burls Creek Park,Canada,Oro,ON,"Oro, Canada",https://seatgeek.com/venues/burls-creek-park/tickets/,"Oro, Canada",0.39815,L0L 2X0,134 8 Line South,America/Toronto,burls-creek-park,2,44.4811,-79.5157
71,Bethel Woods Center For The Arts,US,Bethel,NY,"Bethel, NY 12720",https://seatgeek.com/venues/bethel-woods-center-for-the-arts/tickets/,"Bethel, NY",0.70684,12720,200 Hurd Road,America/New_York,bethel-woods-center-for-the-arts,26,41.7006,-74.8821
168,Darien Lake Performing Arts Center,US,Darien Center,NY,"Darien Center, NY 14040",https://seatgeek.com/venues/darien-lake-performing-arts-center/tickets/,"Darien Center, NY",0.73395,14040,9993 Alleghany Road,America/New_York,darien-lake-performing-arts-center,20,42.9321,-78.3908
61,Walnut Creek Amphitheatre,US,Raleigh,NC,"Raleigh, NC 27610",https://seatgeek.com/venues/walnut-creek-amphitheatre/tickets/,"Raleigh, NC",0.73789,27610,3801 Rock Quarry Road,America/New_York,walnut-creek-amphitheatre,15,35.7456,-78.584
8298,Grant Park,US,Chicago,IL,"Chicago, IL 60601",https://seatgeek.com/venues/grant-park-1/tickets/,"Chicago, IL",0.88328,60601,541 N. Fairbanks,America/Chicago,grant-park-1,5,41.8923,-87.6198
53174,Voormalig Floriade Terrein,Netherlands,Haarlemmermeer,,"Haarlemmermeer, Netherlands",https://seatgeek.com/venues/voormalig-floriade-terrein-1/tickets/,"Haarlemmermeer, Netherlands",0.0,2130 AD,Mystery Land Festival,Europe/Amsterdam,voormalig-floriade-terrein-1,1,52.3,4.7
3179,Randalls Island,US,New York,NY,"New York, NY 10035",https://seatgeek.com/venues/randalls-island/tickets/,"New York, NY",0.7621,10035,1 Randalls Island Park,America/New_York,randalls-island,8,40.7932,-73.9213
945,San Manuel Amphitheater,US,San Bernardino,CA,"San Bernardino, CA 92407",https://seatgeek.com/venues/san-manuel-amphitheater/tickets/,"San Bernardino, CA",0.71786,92407,2575 Glen Helen Parkway,America/Los_Angeles,san-manuel-amphitheater,12,34.2104,-117.408
49367,"Light Nightclub, Mandalay Bay",US,Las Vegas,NV,"Las Vegas, NV 89119",https://seatgeek.com/venues/light-nightclub-mandalay-bay/tickets/,"Las Vegas, NV",0.41912,89119,3950 Las Vegas Blvd.,America/Los_Angeles,light-nightclub-mandalay-bay,33,36.0908,-115.175
2537,New Orleans City Park,US,New Orleans,LA,"New Orleans, LA 70124",https://seatgeek.com/venues/new-orleans-city-park/tickets/,"New Orleans, LA",0.6798,70124,1751 Gentilly Blvd.,America/Chicago,new-orleans-city-park,5,29.9843,-90.0767
809,Great Jones County Fair,US,Monticello,IA,"Monticello, IA 52310",https://seatgeek.com/venues/great-jones-county-fair/tickets/,"Monticello, IA",0.65585,52310,700 North Maple Street,America/Chicago,great-jones-county-fair,9,42.2455,-91.1897
992,Soaring Eagle Casino & Resort,US,Mount Pleasant,MI,"Mount Pleasant, MI 48858",https://seatgeek.com/venues/soaring-eagle-casino-resort/tickets/,"Mount Pleasant, MI",0.58657,48858,6800 Soaring Eagle Boulevard,America/Detroit,soaring-eagle-casino-resort,8,43.608,-84.7122
68,Blossom Music Center,US,Cuyahoga Falls,OH,"Cuyahoga Falls, OH 44223",https://seatgeek.com/venues/blossom-music-center/tickets/,"Cuyahoga Falls, OH",0.74572,44223,1145 West Steels Corners Road,America/New_York,blossom-music-center,16,41.1913,-81.5608
86,Riverbend Music Center,US,Cincinnati,OH,"Cincinnati, OH 45230",https://seatgeek.com/venues/riverbend-music-center/tickets/,"Cincinnati, OH",0.74419,45230,6295 Kellogg Avenue,America/New_York,riverbend-music-center,19,39.0546,-84.414
67,DTE Energy Music Theatre,US,Clarkston,MI,"Clarkston, MI 48348",https://seatgeek.com/venues/dte-energy-music-theatre/tickets/,"Clarkston, MI",0.74992,48348,7774 Sashabaw Road,America/Detroit,dte-energy-music-theatre,31,42.7468,-83.3801
69,Klipsch Music Center,US,Noblesville,IN,"Noblesville, IN 46060",https://seatgeek.com/venues/klipsch-music-center/tickets/,"Noblesville, IN",0.74437,46060,12880 E 146th St,America/Indiana/Indianapolis,klipsch-music-center,21,40.0014,-85.9365
82,Hollywood Casino Amphitheatre,US,Tinley Park,IL,"Tinley Park, IL 60477",https://seatgeek.com/venues/hollywood-casino-amphitheatre-1/tickets/,"Tinley Park, IL",0.80434,60477,19100 RIDGELAND AVE,America/Chicago,hollywood-casino-amphitheatre-1,21,41.5439,-87.7758
56,Hollywood Casino Amphitheatre,US,Maryland Heights,MO,"Maryland Heights, MO 63043",https://seatgeek.com/venues/hollywood-casino-amphitheatre/tickets/,"Maryland Heights, MO",0.73875,63043,14141 Riverport Dr,America/Chicago,hollywood-casino-amphitheatre,25,38.7456,-90.47
432,Croke Park,Ireland,Dublin,Dublin,"Dublin, Ireland",https://seatgeek.com/venues/croke-park/tickets/,"Dublin, Ireland",0.69092,3,3 Jones's Road,Europe/Dublin,croke-park,2,53.3607,-6.25121
7392,BBVA Compass Stadium,US,Houston,TX,"Houston, TX 77003",https://seatgeek.com/venues/bbva-compass-stadium/tickets/,"Houston, TX",0.68555,77003,2200 Texas St.,America/Chicago,bbva-compass-stadium,19,29.7536,-95.3518
3576,Toyota Stadium,US,Frisco,TX,"Frisco, TX 75034",https://seatgeek.com/venues/toyota-stadium-1/tickets/,"Frisco, TX",0.70569,75034,9200 World Cup Way,America/Chicago,toyota-stadium-1,9,33.1541,-96.8377
2652,Amway Center,US,Orlando,FL,"Orlando, FL 32801",https://seatgeek.com/venues/amway-center/tickets/,"Orlando, FL",0.76232,32801,400 West Church Street,America/New_York,amway-center,17,28.5402,-81.3839
183,American Airlines Arena,US,Miami,FL,"Miami, FL 33132",https://seatgeek.com/venues/american-airlines-arena/tickets/,"Miami, FL",0.85972,33132,601 Biscayne Blvd,America/New_York,american-airlines-arena,39,25.7812,-80.1878
182,Amalie Arena,US,Tampa,FL,"Tampa, FL 33602",https://seatgeek.com/venues/amalie-arena/tickets/,"Tampa, FL",0.7785,33602,401 Channelside Dr.,America/New_York,amalie-arena,56,27.9426,-82.452
30633,St. Pete Times Forum,US,Tampa,FL,"Tampa, FL 33602",https://seatgeek.com/venues/st-pete-times-forum-1/tickets/,"Tampa, FL",0.0,33602,401 Channelside Dr.,America/New_York,st-pete-times-forum-1,1,27.9426,-82.452
127,Philips Arena,US,Atlanta,GA,"Atlanta, GA 30303",https://seatgeek.com/venues/philips-arena/tickets/,"Atlanta, GA",0.77235,30303,1 Philips Dr,America/New_York,philips-arena,43,33.7572,-84.3964
2195,Bridgestone Arena,US,Nashville,TN,"Nashville, TN 37203",https://seatgeek.com/venues/bridgestone-arena/tickets/,"Nashville, TN",0.7792,37203,501 Broadway,America/Chicago,bridgestone-arena,88,36.1601,-86.7791
3076,State Theatre,US,Portland,ME,"Portland, ME 04101",https://seatgeek.com/venues/state-theatre-15/tickets/,"Portland, ME",0.51494,04101,609 Congress St,America/New_York,state-theatre-15,25,43.6541,-70.2623
186,Scottrade Center,US,St. Louis,MO,"St. Louis, MO 63103",https://seatgeek.com/venues/scottrade-center/tickets/,"St. Louis, MO",0.78873,63103,1401 Clark Avenue,America/Chicago,scottrade-center,66,38.6262,-90.2021
670,The Intersection,US,Grand Rapids,MI,"Grand Rapids, MI 49503",https://seatgeek.com/venues/the-intersection/tickets/,"Grand Rapids, MI",0.4789,49503,133 Grandville Sw,America/Detroit,the-intersection,24,42.9599,-85.6741
3785,Fairplex At Pomona,US,Pomona,CA,"Pomona, CA 91768",https://seatgeek.com/venues/fairplex-at-pomona/tickets/,"Pomona, CA",0.57797,91768,1101 West McKinley Ave.,America/Los_Angeles,fairplex-at-pomona,9,34.0674,-117.788
60309,Drais Rooftop Beachclub,US,Las Vegas,NV,"Las Vegas, NV 89109",https://seatgeek.com/venues/drais-rooftop-beachclub/tickets/,"Las Vegas, NV",0.50157,89109,3595 S Las Vegas Blvd.,America/Los_Angeles,drais-rooftop-beachclub,41,36.1149,-115.172
64,Nikon at Jones Beach Theater,US,Wantagh,NY,"Wantagh, NY 11793",https://seatgeek.com/venues/nikon-at-jones-beach-theater/tickets/,"Wantagh, NY",0.79817,11793,1000 Ocean Parkway,America/New_York,nikon-at-jones-beach-theater,23,40.5951,-73.521
2563,Seattle Center,US,Seattle,WA,"Seattle, WA 98109",https://seatgeek.com/venues/seattle-center/tickets/,"Seattle, WA",0.59221,98109,305 Harrison Street,America/Los_Angeles,seattle-center,5,47.6213,-122.349
2437,Porter County Fairgrounds,US,Valparaiso,IN,"Valparaiso, IN 46383",https://seatgeek.com/venues/porter-county-fairgrounds/tickets/,"Valparaiso, IN",0.55672,46383,215 East Division Road,America/Chicago,porter-county-fairgrounds,1,41.436,-87.0245
1052,Four Seasons Arena,US,Great Falls,MT,"Great Falls, MT 59403",https://seatgeek.com/venues/four-seasons-arena/tickets/,"Great Falls, MT",0.4166,59403,400 3rd Street NW,America/Denver,four-seasons-arena,3,47.5116,-111.317
53696,Cowichan Exhibition Society Fairgrounds,Canada,Duncan,BC,"Duncan, Canada",https://seatgeek.com/venues/cowichan-exhibition-society-fairgrounds/tickets/,"Duncan, Canada",0.41771,V9L 5Z7,7380 Trans Canada Hwy,America/Vancouver,cowichan-exhibition-society-fairgrounds,1,48.8363,-123.719
38912,Oregon Jamboree,US,Sweet Home,OR,"Sweet Home, OR 97386",https://seatgeek.com/venues/oregon-jamboree/tickets/,"Sweet Home, OR",0.51967,97386,860 18th Avenue,America/Los_Angeles,oregon-jamboree,2,44.3937,-122.723
16543,The State Fairgrounds,US,West Allis,WI,"West Allis, WI 53214",https://seatgeek.com/venues/the-state-fairgrounds/tickets/,"West Allis, WI",0.0,53214,640 South 84th Street,America/Chicago,the-state-fairgrounds,5,43.0241,-88.0158
11071,Mercer County Park Festival Grounds,US,West Windsor,NJ,"West Windsor, NJ 08550",https://seatgeek.com/venues/mercer-county-park-festival-grounds/tickets/,"West Windsor, NJ",0.53207,08550,1638 Old Trenton Road,America/New_York,mercer-county-park-festival-grounds,1,40.2553,-74.6292
579,Hampton Beach Casino Ballroom,US,Hampton Beach,NH,"Hampton Beach, NH 03842",https://seatgeek.com/venues/hampton-beach-casino-ballroom/tickets/,"Hampton Beach, NH",0.53117,03842,169 Ocean Blvd,America/New_York,hampton-beach-casino-ballroom,34,42.9096,-70.811
58,Saratoga Performing Arts Center,US,Saratoga Springs,NY,"Saratoga Springs, NY 12866",https://seatgeek.com/venues/saratoga-performing-arts-center/tickets/,"Saratoga Springs, NY",0.75385,12866,108 Avenue of the Pines,America/New_York,saratoga-performing-arts-center,17,43.0865,-73.8655
910,Deer Valley Resort,US,Park City,UT,"Park City, UT 84060",https://seatgeek.com/venues/deer-valley-resort/tickets/,"Park City, UT",0.43492,84060,2250 Deer Valley Dr. South,America/Denver,deer-valley-resort,10,40.6384,-111.48
77894,Omnia,US,Las Vegas,NV,"Las Vegas, NV 89109",https://seatgeek.com/venues/omnia/tickets/,"Las Vegas, NV",0.38271,89109,3570 S Las Vegas Blvd,America/Los_Angeles,omnia,34,36.1196,-115.173
30818,Wet Republic Ultra Pool,US,Las Vegas,NV,"Las Vegas, NV 89109",https://seatgeek.com/venues/wet-republic-ultra-pool/tickets/,"Las Vegas, NV",0.482,89109,3799 Las Vegas Blvd,America/Los_Angeles,wet-republic-ultra-pool,27,36.2289,-115.074
7255,Oslo Spektrum,Norway,Oslo,03,"Oslo, Norway",https://seatgeek.com/venues/oslo-spektrum/tickets/,"Oslo, Norway",0.0,0185,Sonja Henies Plass 2,Europe/Oslo,oslo-spektrum,10,59.9126,10.7548
10286,Weston Park,UK,Shifnal,Tfw,"Shifnal, UK",https://seatgeek.com/venues/weston-park/tickets/,"Shifnal, UK",0.69346,TF11 8LE,Weston-under-Lizard,Europe/London,weston-park,3,52.6954,-2.28983
4331,Hylands Park,UK,Chelmsford,London,"Chelmsford, UK",https://seatgeek.com/venues/hylands-park/tickets/,"Chelmsford, UK",0.6839,CM2 8WQ,London Road,Europe/London,hylands-park,3,51.7125,0.44528
10163,Boucher Playing Fields,Europe,Belfast,Ant,"Belfast, Europe",https://seatgeek.com/venues/boucher-playing-fields/tickets/,"Belfast, Europe",0.40826,BT126HR,Boucher Road,Europe/London,boucher-playing-fields,2,54.5769,-5.96358
42265,Bellahouston Park,Europe,Glasgow,Glg,"Glasgow, Europe",https://seatgeek.com/venues/bellahouston-park/tickets/,"Glasgow, Europe",0.61412,G41 5BW,16 Dumbreck Road,Europe/London,bellahouston-park,2,55.8472,-4.30784
49698,Hakkasan Las Vegas,US,Las Vegas,NV,"Las Vegas, NV 89109",https://seatgeek.com/venues/hakkasan-las-vegas-1/tickets/,"Las Vegas, NV",0.46676,89109,3799 S Las Vegas Blvd,America/Los_Angeles,hakkasan-las-vegas-1,21,36.1034,-115.169
3804,Fantasy Springs Resort Casino,US,Indio,CA,"Indio, CA 92203",https://seatgeek.com/venues/fantasy-springs-resort-casino/tickets/,"Indio, CA",0.53624,92203,84245 Indio Springs Parkway,America/Los_Angeles,fantasy-springs-resort-casino,13,33.7215,-116.193
2176,Country Jam USA,US,Eau Claire,WI,"Eau Claire, WI 54701",https://seatgeek.com/venues/country-jam-usa/tickets/,"Eau Claire, WI",0.38654,54701,3633 Crescent Ave.,America/Chicago,country-jam-usa,4,44.7853,-91.5929
78512,Ascend Amphitheater,US,Nashville,TN,"Nashville, TN 37203",https://seatgeek.com/venues/ascend-amphitheater/tickets/,"Nashville, TN",0.0,37203,First Street and Demonbreun,America/Chicago,ascend-amphitheater,28,36.1602,-86.7731
346,Ford Field,US,Detroit,MI,"Detroit, MI 48226",https://seatgeek.com/venues/ford-field/tickets/,"Detroit, MI",0.92129,48226,2000 Brush St.,America/Detroit,ford-field,17,42.34,-83.0459
7853,Legend Valley,US,Thornville,OH,"Thornville, OH 43076",https://seatgeek.com/venues/legend-valley/tickets/,"Thornville, OH",0.52387,43076,7585 Kindle Road,America/New_York,legend-valley,5,39.9366,-82.4037
260,Allentown Fairgrounds,US,Allentown,PA,"Allentown, PA 18104",https://seatgeek.com/venues/allentown-fairgrounds/tickets/,"Allentown, PA",0.72291,18104,302 N. 17th St.,America/New_York,allentown-fairgrounds,12,40.5733,-75.4564
4317,Valley View Casino Center,US,San Diego,CA,"San Diego, CA 92110",https://seatgeek.com/venues/valley-view-casino-center/tickets/,"San Diego, CA",0.7118,92110,3500 Sports Arena Blvd,America/Los_Angeles,valley-view-casino-center,34,33.2189,-116.973
76,Save Mart Center,US,Fresno,CA,"Fresno, CA 93710",https://seatgeek.com/venues/save-mart-center/tickets/,"Fresno, CA",0.69681,93710,2650 East Shaw Avenue,America/Los_Angeles,save-mart-center,7,36.8097,-119.738
770,Puyallup Fairgrounds,US,Puyallup,WA,"Puyallup, WA 98371",https://seatgeek.com/venues/puyallup-fairgrounds/tickets/,"Puyallup, WA",0.63205,98371,110 9th Ave SW,America/Los_Angeles,puyallup-fairgrounds,16,47.1904,-122.296
137,The Palace of Auburn Hills,US,Auburn Hills,MI,"Auburn Hills, MI 48326",https://seatgeek.com/venues/the-palace-of-auburn-hills/tickets/,"Auburn Hills, MI",0.75259,48326,6 Championship Drive,America/Detroit,the-palace-of-auburn-hills,40,42.6968,-83.2455
3148,Wells Fargo Center,US,Philadelphia,PA,"Philadelphia, PA 19148",https://seatgeek.com/venues/wells-fargo-center/tickets/,"Philadelphia, PA",0.81678,19148,3601 South Broad Street,America/New_York,wells-fargo-center,87,39.9012,-75.1721
117,American Airlines Center,US,Dallas,TX,"Dallas, TX 75219",https://seatgeek.com/venues/american-airlines-center/tickets/,"Dallas, TX",0.80599,75219,2500 Victory Ave,America/Chicago,american-airlines-center,77,32.7904,-96.8102
33,Gillette Stadium,US,Foxborough,MA,"Foxborough, MA 02035",https://seatgeek.com/venues/gillette-stadium/tickets/,"Foxborough, MA",0.89528,02035,1 Patriot Place,America/New_York,gillette-stadium,27,42.0906,-71.2674
46,BC Place Stadium,Canada,Vancouver,BC,"Vancouver, Canada",https://seatgeek.com/venues/bc-place-stadium/tickets/,"Vancouver, Canada",0.74344,V6B 4Y8,777 Pacific Boulevard,America/Vancouver,bc-place-stadium,21,49.2767,-123.112
163,Rexall Place,Canada,Edmonton,AB,"Edmonton, Canada",https://seatgeek.com/venues/rexall-place/tickets/,"Edmonton, Canada",0.74698,T5B 4M9,7424 118 Ave NW,America/Edmonton,rexall-place,65,53.5704,-113.456
339,CenturyLink Field,US,Seattle,WA,"Seattle, WA 98134",https://seatgeek.com/venues/centurylink-field/tickets/,"Seattle, WA",0.88084,98134,800 Occidental Avenue South,America/Los_Angeles,centurylink-field,19,47.5951,-122.332
58670,Levi's Stadium,US,Santa Clara,CA,"Santa Clara, CA 95054",https://seatgeek.com/venues/levi-s-stadium/tickets/,"Santa Clara, CA",0.97121,95054,4900 Centennial Blvd,America/Los_Angeles,levi-s-stadium,20,37.4032,-121.97
258,Gila River Arena,US,Glendale,AZ,"Glendale, AZ 85305",https://seatgeek.com/venues/gila-river-arena/tickets/,"Glendale, AZ",0.77171,85305,9400 W. Maryland Ave.,America/Phoenix,gila-river-arena,51,33.5315,-112.261
10431,Royal Norfolk Showground,UK,Norwich,Nfk,"Norwich, UK",https://seatgeek.com/venues/royal-norfolk-showground/tickets/,"Norwich, UK",0.41628,NR5 0TT,Dereham Road,Europe/London,royal-norfolk-showground,7,52.6012,1.05061
10945,Rhyl Pavilion Theatre,UK,Rhyl,Cwy,"Rhyl, UK",https://seatgeek.com/venues/rhyl-pavilion-theatre/tickets/,"Rhyl, UK",0.38031,LL18 3AQ,Promenade,Europe/London,rhyl-pavilion-theatre,5,53.3116,-3.47238
9525,O2 Academy Birmingham,UK,Birmingham,W Mids,"Birmingham, UK",https://seatgeek.com/venues/o2-academy-birmingham/tickets/,"Birmingham, UK",0.45181,B1 1DB,16 Horsefair,Europe/London,o2-academy-birmingham,76,52.4743,-1.89964
4896,O2 Academy Bournemouth,UK,Bournemouth,Dor,"Bournemouth, UK",https://seatgeek.com/venues/o2-academy-bournemouth/tickets/,"Bournemouth, UK",0.45856,BH1 4BH,570 Christchurch Road,Europe/London,o2-academy-bournemouth,11,50.7449,-1.85669
4329,Colston Hall,UK,Bristol,Bst,"Bristol, UK",https://seatgeek.com/venues/colston-hall/tickets/,"Bristol, UK",0.44169,BS1 5AR,13 Colston Street Harbourside,Europe/London,colston-hall,61,51.4502,-2.60261
4870,O2 Academy Glasgow,UK,Glasgow,Glg,"Glasgow, UK",https://seatgeek.com/venues/o2-academy-glasgow/tickets/,"Glasgow, UK",0.46464,G5 9NT,121 Eglinton Street,Europe/London,o2-academy-glasgow,27,55.8513,-4.16257
4724,O2 Academy Newcastle,UK,Newcastle upon Tyne,T & W,"Newcastle upon Tyne, UK",https://seatgeek.com/venues/o2-academy-newcastle/tickets/,"Newcastle upon Tyne, UK",0.43637,NE1 1SW,Westgate Road,Europe/London,o2-academy-newcastle,85,54.9764,-1.65908
4753,Cambridge Corn Exchange,UK,Cambridge,Cambridgeshire,"Cambridge, UK",https://seatgeek.com/venues/cambridge-corn-exchange/tickets/,"Cambridge, UK",0.45314,CB2 3QB,3 Parson's Court,Europe/London,cambridge-corn-exchange,40,52.2044,0.11945
194,Lake Tahoe Outdoor Arena at Harveys,US,Stateline,NV,"Stateline, NV 89449",https://seatgeek.com/venues/lake-tahoe-outdoor-arena-at-harveys-1/tickets/,"Stateline, NV",0.75838,89449,18 Highway 50,America/Los_Angeles,lake-tahoe-outdoor-arena-at-harveys-1,8,38.96,-119.942
45,Rose Bowl,US,Pasadena,CA,"Pasadena, CA 91103",https://seatgeek.com/venues/rose-bowl/tickets/,"Pasadena, CA",0.93961,91103,1001 Rose Bowl Drive,America/Los_Angeles,rose-bowl,9,34.159,-118.168
1087,BankPlus Amphitheater at Snowden Grove,US,Southaven,MS,"Southaven, MS 38672",https://seatgeek.com/venues/bankplus-amphitheater-at-snowden-grove/tickets/,"Southaven, MS",0.66396,38672,6285 Snowden Lane,America/Chicago,bankplus-amphitheater-at-snowden-grove,8,34.9582,-89.9334
2217,Arkansas Music Pavilion,US,Fayetteville,AR,"Fayetteville, AR 72758",https://seatgeek.com/venues/arkansas-music-pavilion/tickets/,"Fayetteville, AR",0.56866,72758,5079 West Northgate Road,America/Chicago,arkansas-music-pavilion,10,36.0626,-94.1574
1128,Arrowhead Stadium,US,Kansas City,MO,"Kansas City, MO 64129",https://seatgeek.com/venues/arrowhead-stadium/tickets/,"Kansas City, MO",0.89132,64129,1 Arrowhead Drive,America/Chicago,arrowhead-stadium,12,39.0489,-94.4839
188,EnergySolutions Arena,US,Salt Lake City,UT,"Salt Lake City, UT 84101",https://seatgeek.com/venues/energysolutions-arena/tickets/,"Salt Lake City, UT",0.70032,84101,301 West South Temple,America/Denver,energysolutions-arena,42,40.7693,-111.9
1131,Sports Authority Field at Mile High,US,Denver,CO,"Denver, CO 80204",https://seatgeek.com/venues/sports-authority-field-at-mile-high/tickets/,"Denver, CO",0.90873,80204,1701 Bryant St.,America/Denver,sports-authority-field-at-mile-high,15,39.6857,-105.018
4290,Darling's Waterfront Pavilion,US,Bangor,ME,"Bangor, ME 04401",https://seatgeek.com/venues/darling-s-waterfront-pavilion/tickets/,"Bangor, ME",0.6787,04401,1 Railroad Street,America/New_York,darling-s-waterfront-pavilion,4,44.7951,-68.7739
481,Jacobs Pavilion at Nautica,US,Cleveland,OH,"Cleveland, OH 44113",https://seatgeek.com/venues/jacobs-pavilion-at-nautica/tickets/,"Cleveland, OH",0.62795,44113,2014 Sycamore St.,America/New_York,jacobs-pavilion-at-nautica,15,41.4959,-81.7031
230,The Lawn at White River,US,Indianapolis,IN,"Indianapolis, IN 46204",https://seatgeek.com/venues/the-lawn-at-white-river/tickets/,"Indianapolis, IN",0.61689,46204,801 W. Washington St.,America/New_York,the-lawn-at-white-river,10,39.7666,-86.1708
933,Winspear Centre,Canada,Edmonton,AB,"Edmonton, Canada",https://seatgeek.com/venues/winspear-centre/tickets/,"Edmonton, Canada",0.54597,T5J 4X8,4 Sir Winston Churchill Square Northwest,America/Edmonton,winspear-centre,9,53.6156,-113.639
932,Jack Singer Concert Hall,Canada,Calgary,AB,"Calgary, Canada",https://seatgeek.com/venues/jack-singer-concert-hall/tickets/,"Calgary, Canada",0.56802,T2G 0K9,205 8th Avenue S.E.,America/Edmonton,jack-singer-concert-hall,14,51.0454,-114.06
756,Crystal Ballroom,US,Portland,OR,"Portland, OR 97209",https://seatgeek.com/venues/crystal-ballroom-1/tickets/,"Portland, OR",0.55273,97209,1332 W. Burnside,America/Los_Angeles,crystal-ballroom-1,26,45.5229,-122.685
78,Greek Theatre,US,Los Angeles,CA,"Los Angeles, CA 90027",https://seatgeek.com/venues/greek-theatre/tickets/,"Los Angeles, CA",0.72078,90027,2700 N. Vermont Ave.,America/Los_Angeles,greek-theatre,40,34.1206,-118.296
54637,MGM Resorts Village,US,Las Vegas,NV,"Las Vegas, NV 89119",https://seatgeek.com/venues/mgm-resorts-village/tickets/,"Las Vegas, NV",0.72399,89119,3901 Las Vegas Blvd,America/Los_Angeles,mgm-resorts-village,5,36.2309,-115.071
17,Rogers Centre,Canada,Toronto,ON,"Toronto, Canada",https://seatgeek.com/venues/rogers-centre/tickets/,"Toronto, Canada",0.75481,M5V 1J1,1 Blue Jays Way,America/Toronto,rogers-centre,66,43.6422,-79.3909
9024,Canyon County Fair,US,Caldwell,ID,"Caldwell, ID 83606",https://seatgeek.com/venues/canyon-county-fair/tickets/,"Caldwell, ID",0.0,83606,111 22nd Street,America/Boise,canyon-county-fair,3,43.6565,-116.672
8915,California State Fairgrounds,US,Sacramento,CA,"Sacramento, CA 95815",https://seatgeek.com/venues/california-state-fairgrounds/tickets/,"Sacramento, CA",0.38427,95815,1600 Exposition Boulevard,America/Los_Angeles,california-state-fairgrounds,2,38.5953,-121.434
49,Shoreline Amphitheatre,US,Mountain View,CA,"Mountain View, CA 94043",https://seatgeek.com/venues/shoreline-amphitheatre/tickets/,"Mountain View, CA",0.78181,94043,1 Amphitheatre Parkway,America/Los_Angeles,shoreline-amphitheatre,22,37.4234,-122.078
53,Irvine Meadows Amphitheatre,US,Irvine,CA,"Irvine, CA 92618",https://seatgeek.com/venues/irvine-meadows-amphitheatre/tickets/,"Irvine, CA",0.79212,92618,8808 Irvine Center Dr,America/Los_Angeles,irvine-meadows-amphitheatre,22,33.6439,-117.739
51,Sleep Train Amphitheatre,US,Chula Vista,CA,"Chula Vista, CA 91911",https://seatgeek.com/venues/sleep-train-amphitheatre-1/tickets/,"Chula Vista, CA",0.75165,91911,2050 Entertainment Circle,America/Los_Angeles,sleep-train-amphitheatre-1,13,32.5896,-117.007
723,Rimrock Auto Arena,US,Billings,MT,"Billings, MT 59103",https://seatgeek.com/venues/rimrock-auto-arena/tickets/,"Billings, MT",0.60606,59103,308 6th Ave N,America/Denver,rimrock-auto-arena,7,45.7997,-108.479
5770,Sands Steel Stage at PNC Plaza,US,Bethlehem,PA,"Bethlehem, PA 18015",https://seatgeek.com/venues/sands-steel-stage-at-pnc-plaza/tickets/,"Bethlehem, PA",0.6164,18015,25 W. Third Street,America/New_York,sands-steel-stage-at-pnc-plaza,7,40.6119,-75.3798
78020,The Borgata Festival Park,US,Atlantic City,NJ,"Atlantic City, NJ 08401",https://seatgeek.com/venues/the-borgata-festival-park/tickets/,"Atlantic City, NJ",0.67352,08401,1 Borgata Way,America/New_York,the-borgata-festival-park,7,39.3781,-74.4338
169,Merriweather Post Pavilion,US,Columbia,MD,"Columbia, MD 21044",https://seatgeek.com/venues/merriweather-post-pavilion/tickets/,"Columbia, MD",0.72818,21044,10475 Little Patuxent Parkway,America/New_York,merriweather-post-pavilion,18,39.2115,-76.863
9974,Sumtur Amphitheater,US,Papillion,NE,"Papillion, NE 68046",https://seatgeek.com/venues/sumtur-amphitheater/tickets/,"Papillion, NE",0.42616,68046,11691 South 108th Street,America/Chicago,sumtur-amphitheater,4,41.1388,-96.0818
654,The Crossroads,US,Kansas City,MO,"Kansas City, MO 64108",https://seatgeek.com/venues/the-crossroads/tickets/,"Kansas City, MO",0.49447,64108,417 E 18th St,America/Chicago,the-crossroads,13,39.0916,-94.5781
196,Red Rocks Amphitheatre,US,Morrison,CO,"Morrison, CO 80465",https://seatgeek.com/venues/red-rocks-amphitheatre/tickets/,"Morrison, CO",0.7375,80465,18300 W. Alameda Parkway,America/Denver,red-rocks-amphitheatre,79,39.6773,-105.194
3605,The Complex,US,Salt Lake City,UT,"Salt Lake City, UT 84101",https://seatgeek.com/venues/the-complex/tickets/,"Salt Lake City, UT",0.48018,84101,536 West 100 South,America/Denver,the-complex,21,40.7557,-111.844
283,Marymoor Park,US,Redmond,WA,"Redmond, WA 98052",https://seatgeek.com/venues/marymoor-park/tickets/,"Redmond, WA",0.60447,98052,6046 West Lake Sammamish Pkwy NE,America/Los_Angeles,marymoor-park,25,47.6617,-122.121
7962,Central Park Summerstage,US,New York,NY,"New York, NY 10022",https://seatgeek.com/venues/central-park-summerstage/tickets/,"New York, NY",0.62642,10022,830 5th Avenue,America/New_York,central-park-summerstage,14,40.7677,-73.9714
10480,Metro City,Australia,Perth,Western Australia,"Perth, Australia",https://seatgeek.com/venues/metro-city/tickets/,"Perth, Australia",0.0,6003,146 Roe St,Australia/Perth,metro-city,9,-31.9476,115.853
17266,Hordern Pavilion,Australia,Sydney,New South Wales,"Sydney, Australia",https://seatgeek.com/venues/hordern-pavilion-1/tickets/,"Sydney, Australia",0.0,2021,1 Driver Ave,Australia/Sydney,hordern-pavilion-1,5,-33.8911,151.223
9672,Robin Hill Country Park,UK,Newport,Iow,"Newport, UK",https://seatgeek.com/venues/robin-hill-country-park/tickets/,"Newport, UK",0.62117,PO30 2NU,Downend,Europe/London,robin-hill-country-park,3,51.5842,-2.99766
151,PNC Bank Arts Center,US,Holmdel,NJ,"Holmdel, NJ 07733",https://seatgeek.com/venues/pnc-bank-arts-center/tickets/,"Holmdel, NJ",0.76981,07733,116 Garden State Pkwy.,America/New_York,pnc-bank-arts-center,28,40.3936,-74.1755
7546,Barclays Center,US,Brooklyn,NY,"Brooklyn, NY 11217",https://seatgeek.com/venues/barclays-center/tickets/,"Brooklyn, NY",0.8488,11217,620 Atlantic Avenue,America/New_York,barclays-center,81,40.6837,-73.9788
138,Molson Canadian Amphitheatre,Canada,Toronto,ON,"Toronto, Canada",https://seatgeek.com/venues/molson-canadian-amphitheatre/tickets/,"Toronto, Canada",0.76469,M6K 3L3,909 Lakeshore Blvd W,America/Toronto,molson-canadian-amphitheatre,31,43.6319,-79.4299
139,Bell Centre,Canada,Montreal,QC,"Montreal, Canada",https://seatgeek.com/venues/bell-centre/tickets/,"Montreal, Canada",0.76085,H3C 5L2,1909 Avenue des Canadiens-de-Montreal,America/Toronto,bell-centre,89,45.496,-73.5695
3705,Aaron's Amphitheatre at Lakewood,US,Atlanta,GA,"Atlanta, GA 30315",https://seatgeek.com/venues/aaron-s-amphitheatre-at-lakewood/tickets/,"Atlanta, GA",0.76706,30315,2002 Lakewood Way,America/New_York,aaron-s-amphitheatre-at-lakewood,18,33.7009,-84.3954
62,PNC Music Pavilion,US,Charlotte,NC,"Charlotte, NC 28262",https://seatgeek.com/venues/pnc-music-pavilion/tickets/,"Charlotte, NC",0.75922,28262,707 Pavilion Blvd.,America/New_York,pnc-music-pavilion,14,35.3274,-80.7107
3704,First Niagara Pavilion,US,Burgettstown,PA,"Burgettstown, PA 15021",https://seatgeek.com/venues/first-niagara-pavilion/tickets/,"Burgettstown, PA",0.72471,15021,665 Route 18,America/New_York,first-niagara-pavilion,17,40.4236,-80.4268
2983,Rogers Arena,Canada,Vancouver,BC,"Vancouver, Canada",https://seatgeek.com/venues/rogers-arena/tickets/,"Vancouver, Canada",0.76409,V6B 6G1,800 Griffiths Way,America/Vancouver,rogers-arena,62,49.2782,-123.108
112,Time Warner Cable Arena,US,Charlotte,NC,"Charlotte, NC 28202",https://seatgeek.com/venues/time-warner-cable-arena/tickets/,"Charlotte, NC",0.74983,28202,333 East Trade Street,America/New_York,time-warner-cable-arena,28,35.2248,-80.8403
4353,KFC Yum! Center,US,Louisville,KY,"Louisville, KY 40202",https://seatgeek.com/venues/kfc-yum-center/tickets/,"Louisville, KY",0.76296,40202,1 Arena Plaza,America/New_York,kfc-yum-center,33,38.2572,-85.754
181,Verizon Center,US,Washington,DC,"Washington, DC 20004",https://seatgeek.com/venues/verizon-center/tickets/,"Washington, DC",0.80748,20004,601 F Street NW,America/New_York,verizon-center,80,38.8973,-77.0209
153,Times Union Center,US,Albany,NY,"Albany, NY 12207",https://seatgeek.com/venues/times-union-center/tickets/,"Albany, NY",0.72847,12207,51 South Pearl Street,America/New_York,times-union-center,17,42.6482,-73.7538
806,Verizon Wireless Arena,US,Manchester,NH,"Manchester, NH 03101",https://seatgeek.com/venues/verizon-wireless-arena/tickets/,"Manchester, NH",0.69048,03101,555 Elm Street,America/New_York,verizon-wireless-arena,24,42.9862,-71.463
150,Canadian Tire Centre,Canada,Kanata,ON,"Kanata, Canada",https://seatgeek.com/venues/canadian-tire-centre/tickets/,"Kanata, Canada",0.7267,K2V 1A5,1000 Paladium Drive,America/Toronto,canadian-tire-centre,61,45.2973,-75.9258
119,Van Andel Arena,US,Grand Rapids,MI,"Grand Rapids, MI 49503",https://seatgeek.com/venues/van-andel-arena/tickets/,"Grand Rapids, MI",0.694,49503,130 Fulton Street West,America/Detroit,van-andel-arena,30,42.9621,-85.6716
15868,Luna Park,Argentina,Buenos Aires,C,"Buenos Aires, Argentina",https://seatgeek.com/venues/luna-park/tickets/,"Buenos Aires, Argentina",0.0,C1428,Av. Madero 420,America/Argentina/Buenos_Aires,luna-park,5,-34.6026,-58.3682
13000,Espaco das Americas,Brazil,Sao Paulo,AM,"Sao Paulo, Brazil",https://seatgeek.com/venues/espaco-das-americas/tickets/,"Sao Paulo, Brazil",0.0,01156000,"Rua Tagipuru, 795",America/Sao_Paulo,espaco-das-americas,2,-23.5278,-46.6678
236,Bank of New Hampshire Pavilion at Meadowbrook,US,Gilford,NH,"Gilford, NH 03249",https://seatgeek.com/venues/bank-of-new-hampshire-pavilion-at-meadowbrook/tickets/,"Gilford, NH",0.64722,03249,72 Meadowbrook Lane,America/New_York,bank-of-new-hampshire-pavilion-at-meadowbrook,16,43.5775,-71.4101
2107,Shadow Hill Ranch,US,Twin Lakes,WI,"Twin Lakes, WI 53181",https://seatgeek.com/venues/shadow-hill-ranch-1/tickets/,"Twin Lakes, WI",0.72498,53181,2305 Lance Dr.,America/Chicago,shadow-hill-ranch-1,5,42.5095,-88.2925
80,Toyota Pavilion At Montage Mountain,US,Scranton,PA,"Scranton, PA 18505",https://seatgeek.com/venues/toyota-pavilion-at-montage-mountain/tickets/,"Scranton, PA",0.66382,18505,1000 Montage Mountain Rd,America/New_York,toyota-pavilion-at-montage-mountain,11,41.3479,-75.6637
292,Ryman Auditorium,US,Nashville,TN,"Nashville, TN 37219",https://seatgeek.com/venues/ryman-auditorium/tickets/,"Nashville, TN",0.66328,37219,116 5th Avenue North,America/Chicago,ryman-auditorium,89,36.161,-86.7787
5706,Peabody Opera House,US,St. Louis,MO,"St. Louis, MO 63103",https://seatgeek.com/venues/peabody-opera-house/tickets/,"St. Louis, MO",0.62713,63103,1400 Market Street,America/Chicago,peabody-opera-house,28,38.6274,-90.2021
1281,BJCC Concert Hall,US,Birmingham,AL,"Birmingham, AL 35203",https://seatgeek.com/venues/bjcc-concert-hall/tickets/,"Birmingham, AL",0.57829,35203,2100 Richard Arrington Blvd,America/Chicago,bjcc-concert-hall,36,33.5231,-86.8114
493,Florida Theatre,US,Jacksonville,FL,"Jacksonville, FL 32202",https://seatgeek.com/venues/florida-theatre/tickets/,"Jacksonville, FL",0.54919,32202,128 East Forsyth Street,America/New_York,florida-theatre,48,30.3263,-81.6557
830,The Fillmore Miami Beach,US,Miami Beach,FL,"Miami Beach, FL 33139",https://seatgeek.com/venues/the-fillmore-miami-beach/tickets/,"Miami Beach, FL",0.62509,33139,1700 Washington Avenue,America/New_York,the-fillmore-miami-beach,18,25.8286,-80.1261
294,Ruth Eckerd Hall,US,Clearwater,FL,"Clearwater, FL 33759",https://seatgeek.com/venues/ruth-eckerd-hall/tickets/,"Clearwater, FL",0.56566,33759,1111 McMullen Booth Rd.,America/New_York,ruth-eckerd-hall,54,27.9767,-82.7088
59984,Dr. Phillips Center - Walt Disney Theater,US,Orlando,FL,"Orlando, FL 32801",https://seatgeek.com/venues/dr-phillips-center-walt-disney-theater/tickets/,"Orlando, FL",0.57059,32801,445 S Magnolia Ave,America/New_York,dr-phillips-center-walt-disney-theater,61,28.5384,-81.3774
58148,Tobin Center for the Performing Arts,US,San Antonio,TX,"San Antonio, TX 78205",https://seatgeek.com/venues/tobin-center-for-the-performing-arts/tickets/,"San Antonio, TX",0.56871,78205,100 Auditorium Circle,America/Chicago,tobin-center-for-the-performing-arts,36,29.4305,-98.4888
490,Bayou Music Center,US,Houston,TX,"Houston, TX 77002",https://seatgeek.com/venues/bayou-music-center/tickets/,"Houston, TX",0.64166,77002,520 Texas Ave.,America/Chicago,bayou-music-center,33,29.7624,-95.3672
4844,La Comedy Club Inside Cabo Wabo Lounge (Planet Hollywood),US,Las Vegas,NV,"Las Vegas, NV 89109",https://seatgeek.com/venues/la-comedy-club-inside-cabo-wabo-lounge-planet-hollywood/tickets/,"Las Vegas, NV",0.77027,89109,3667 S Las Vegas Blvd,America/Los_Angeles,la-comedy-club-inside-cabo-wabo-lounge-planet-hollywood,74,36.1101,-115.173
591,The Colosseum At Caesars Palace,US,Las Vegas,NV,"Las Vegas, NV 89109",https://seatgeek.com/venues/the-colosseum-at-caesars-palace/tickets/,"Las Vegas, NV",0.6643,89109,3570 Las Vegas Blvd South,America/Los_Angeles,the-colosseum-at-caesars-palace,90,36.1172,-115.173
9562,Alex's Bar,US,Long Beach,CA,"Long Beach, CA 90804",https://seatgeek.com/venues/alex-s-bar/tickets/,"Long Beach, CA",0.37316,90804,2913 E. Anaheim St.,America/Los_Angeles,alex-s-bar,16,33.78,-118.16
1446,Brighton Music Hall,US,Boston,MA,"Boston, MA 02134",https://seatgeek.com/venues/brighton-music-hall/tickets/,"Boston, MA",0.46652,02134,158 Brighton Avenue,America/New_York,brighton-music-hall,66,42.3529,-71.1326
11090,The Hollow,US,Albany,NY,"Albany, NY 12207",https://seatgeek.com/venues/the-hollow-1/tickets/,"Albany, NY",0.40987,12207,79 North Pearl Street,America/New_York,the-hollow-1,12,42.6524,-73.7507
7550,U Street Music Hall,US,Washington,DC,"Washington, DC 20009",https://seatgeek.com/venues/u-street-music-hall/tickets/,"Washington, DC",0.51018,20009,1115 U Street NW,America/New_York,u-street-music-hall,52,38.917,-77.0272
760,The Basement,US,Columbus,OH,"Columbus, OH 43201",https://seatgeek.com/venues/the-basement/tickets/,"Columbus, OH",0.44011,43201,391 Neil Ave.,America/New_York,the-basement,24,39.9693,-83.0095
1435,20th Century Theater,US,Cincinnati,OH,"Cincinnati, OH 45209",https://seatgeek.com/venues/20th-century-theater/tickets/,"Cincinnati, OH",0.4333,45209,3021 Madison Road,America/New_York,20th-century-theater,6,39.1513,-84.4329
7493,The Crofoot-Pike Room,US,Pontiac,MI,"Pontiac, MI 48342",https://seatgeek.com/venues/the-crofoot-pike-room/tickets/,"Pontiac, MI",0.0,48342,1 South Saginaw,America/New_York,the-crofoot-pike-room,4,42.6366,-83.2913
7974,The Observatory North Park,US,San Diego,CA,"San Diego, CA 92104",https://seatgeek.com/venues/the-observatory-north-park/tickets/,"San Diego, CA",0.5398,92104,2891 University Avenue,America/Los_Angeles,the-observatory-north-park,40,32.75,-117.13
303,Pacific Amphitheatre,US,Costa Mesa,CA,"Costa Mesa, CA 92626",https://seatgeek.com/venues/pacific-amphitheatre/tickets/,"Costa Mesa, CA",0.70298,92626,100 Fair Drive,America/Los_Angeles,pacific-amphitheatre,21,33.6639,-117.903
454,Fox Theater,US,Oakland,CA,"Oakland, CA 94612",https://seatgeek.com/venues/fox-theater/tickets/,"Oakland, CA",0.66471,94612,1807 Telegraph Ave,America/Los_Angeles,fox-theater,30,37.8078,-122.27
625,Showbox SoDo,US,Seattle,WA,"Seattle, WA 98134",https://seatgeek.com/venues/showbox-sodo/tickets/,"Seattle, WA",0.5599,98134,1700 1st Ave. S.,America/Los_Angeles,showbox-sodo,23,47.588,-122.334
498,McMenamins Historic Edgefield Manor,US,Troutdale,OR,"Troutdale, OR 97060",https://seatgeek.com/venues/mcmenamins-historic-edgefield-manor/tickets/,"Troutdale, OR",0.62192,97060,2126 SW Halsey St.,America/Los_Angeles,mcmenamins-historic-edgefield-manor,14,45.5371,-122.407
451,Fillmore Auditorium,US,Denver,CO,"Denver, CO 80218",https://seatgeek.com/venues/fillmore-auditorium/tickets/,"Denver, CO",0.5784,80218,1510 Clarkson Street,America/Denver,fillmore-auditorium,22,39.7404,-104.977
327,Mercury Lounge,US,New York,NY,"New York, NY 10002",https://seatgeek.com/venues/mercury-lounge/tickets/,"New York, NY",0.44683,10002,217 East Houston Street,America/New_York,mercury-lounge,65,40.7223,-73.9867
1459,World Cafe Live,US,Philadelphia,PA,"Philadelphia, PA 19104",https://seatgeek.com/venues/world-cafe-live/tickets/,"Philadelphia, PA",0.43745,19104,3025 Walnut Street,America/New_York,world-cafe-live,109,39.952,-75.1852
973,The Roxy Theatre,US,West Hollywood,CA,"West Hollywood, CA 90069",https://seatgeek.com/venues/the-roxy-theatre/tickets/,"West Hollywood, CA",0.52893,90069,9009 W. Sunset Blvd.,America/Los_Angeles,the-roxy-theatre,63,34.0909,-118.388
4706,Grand Ole Opry House,US,Nashville,TN,"Nashville, TN 37214",https://seatgeek.com/venues/grand-ole-opry-house/tickets/,"Nashville, TN",0.58053,37214,2804 Opryland Drive,America/Chicago,grand-ole-opry-house,113,36.2063,-86.6936
308,Wisconsin State Fair Park,US,West Allis,WI,"West Allis, WI 53214",https://seatgeek.com/venues/wisconsin-state-fair-park/tickets/,"West Allis, WI",0.56643,53214,640 S. 84th Street,America/Chicago,wisconsin-state-fair-park,42,43.0244,-88.0158
3974,Medina Entertainment Center,US,Hamel,MN,"Hamel, MN 55340",https://seatgeek.com/venues/medina-entertainment-center/tickets/,"Hamel, MN",0.33454,55340,500 Highway 55,America/Chicago,medina-entertainment-center,9,45.0453,-93.5347
9437,Ho-Chunk Gaming-WI-Dells,US,Baraboo,WI,"Baraboo, WI 53913",https://seatgeek.com/venues/ho-chunk-gaming-wi-dells/tickets/,"Baraboo, WI",0.44926,53913,S3214 Hwy 12,America/Chicago,ho-chunk-gaming-wi-dells,4,43.5272,-89.7778
12209,The Museum Club,US,Flagstaff,AZ,"Flagstaff, AZ 86004",https://seatgeek.com/venues/the-museum-club/tickets/,"Flagstaff, AZ",0.0,86004,3404 East Route 66,America/Phoenix,the-museum-club,17,35.2142,-111.6
1857,8 Seconds Saloon,US,Indianapolis,IN,"Indianapolis, IN 46224",https://seatgeek.com/venues/8-seconds-saloon/tickets/,"Indianapolis, IN",0.49575,46224,111 N Lynhurst Dr,America/Indiana/Indianapolis,8-seconds-saloon,10,39.77,-86.25
8175,Willamette Country Music Festival Grounds,US,Brownsville,OR,"Brownsville, OR 97327",https://seatgeek.com/venues/willamette-country-music-festival-grounds/tickets/,"Brownsville, OR",0.6613,97327,36866 Hwy 228,America/Los_Angeles,willamette-country-music-festival-grounds,1,44.3742,-122.916
466,Emerald Queen Casino,US,Tacoma,WA,"Tacoma, WA 98404",https://seatgeek.com/venues/emerald-queen-casino/tickets/,"Tacoma, WA",0.55567,98404,2102 Alexander Ave,America/Los_Angeles,emerald-queen-casino,8,47.2649,-122.385
24942,Deep Water Amphitheater,US,Manson,WA,"Manson, WA 98831",https://seatgeek.com/venues/deep-water-amphitheater/tickets/,"Manson, WA",0.0,98831,455 Wapato Lake Road,America/Los_Angeles,deep-water-amphitheater,6,47.8853,-120.131
6073,Celebrate Virginia Live,US,Fredericksburg,VA,"Fredericksburg, VA 22401",https://seatgeek.com/venues/celebrate-virginia-live/tickets/,"Fredericksburg, VA",0.48632,22401,1 Gordon W. Shelton Blvd.,America/New_York,celebrate-virginia-live,4,38.3009,-77.4591
9958,Cuyahoga County Fairgrounds,US,Berea,OH,"Berea, OH 44017",https://seatgeek.com/venues/cuyahoga-county-fairgrounds/tickets/,"Berea, OH",0.42889,44017,164 Eastland Road,America/New_York,cuyahoga-county-fairgrounds,5,41.3658,-81.844
4220,Hulman Center,US,Terre Haute,IN,"Terre Haute, IN 47809",https://seatgeek.com/venues/hulman-center/tickets/,"Terre Haute, IN",0.59878,47809,200 N 8th St,America/Indiana/Indianapolis,hulman-center,2,39.4685,-87.4057
233,Starland Ballroom,US,Sayreville,NJ,"Sayreville, NJ 08872",https://seatgeek.com/venues/starland-ballroom/tickets/,"Sayreville, NJ",0.54541,08872,570 Jernee Mill Road,America/New_York,starland-ballroom,27,40.4364,-74.3495
746,The Norva,US,Norfolk,VA,"Norfolk, VA 23510",https://seatgeek.com/venues/the-norva/tickets/,"Norfolk, VA",0.48163,23510,317 Monticello Ave,America/New_York,the-norva,30,36.8501,-76.2893
1221,Sherman Theater,US,Stroudsburg,PA,"Stroudsburg, PA 18360",https://seatgeek.com/venues/sherman-theater/tickets/,"Stroudsburg, PA",0.49585,18360,524 Main Street,America/New_York,sherman-theater,26,40.9861,-75.1914
526,Abbotsford Entertainment and Sports Centre,Canada,Abbotsford,BC,"Abbotsford, Canada",https://seatgeek.com/venues/abbotsford-entertainment-and-sports-centre/tickets/,"Abbotsford, Canada",0.58191,V2S 8H8,33800 King Road,America/Vancouver,abbotsford-entertainment-and-sports-centre,6,49.0313,-122.287
1422,Stampede Corral,Canada,Calgary,AB,"Calgary, Canada",https://seatgeek.com/venues/stampede-corral/tickets/,"Calgary, Canada",0.56188,T2G 2W1,10 Corral Trail SE,America/Edmonton,stampede-corral,4,51.0453,-114.058
164,SaskTel Centre,Canada,Saskatoon,SK,"Saskatoon, Canada",https://seatgeek.com/venues/sasktel-centre/tickets/,"Saskatoon, Canada",0.66761,S7R 1C4,3515 Thatcher Avenue,America/Swift_Current,sasktel-centre,11,52.1882,-106.676
98,MTS Centre,Canada,Winnipeg,MB,"Winnipeg, Canada",https://seatgeek.com/venues/mts-centre/tickets/,"Winnipeg, Canada",0.68615,R3C 5S4,300 Portage Avenue,America/Winnipeg,mts-centre,64,49.8936,-97.1435
3508,Mile One Centre,Canada,St. John's,NL,"St. John's, Canada",https://seatgeek.com/venues/mile-one-centre/tickets/,"St. John's, Canada",0.4815,A1C 1J3,50 New Gower Street,America/St_Johns,mile-one-centre,8,47.5607,-52.7122
643,LB Day Amphitheatre,US,Salem,OR,"Salem, OR 97310",https://seatgeek.com/venues/lb-day-amphitheatre/tickets/,"Salem, OR",0.52088,97310,2330 17th Street NE,America/Los_Angeles,lb-day-amphitheatre,21,44.9575,-123.011
940,James L Knight Center,US,Miami,FL,"Miami, FL 33131",https://seatgeek.com/venues/james-l-knight-center/tickets/,"Miami, FL",0.63015,33131,400 SE 2nd Ave,America/New_York,james-l-knight-center,9,25.7709,-80.1909
238,Hard Rock Live,US,Orlando,FL,"Orlando, FL 32819",https://seatgeek.com/venues/hard-rock-live/tickets/,"Orlando, FL",0.58888,32819,6050 Universal Blvd.,America/New_York,hard-rock-live,19,28.4737,-81.4673
173,Tempe Beach Park,US,Tempe,AZ,"Tempe, AZ 85281",https://seatgeek.com/venues/tempe-beach-park/tickets/,"Tempe, AZ",0.58651,85281,31 E 5th Street,America/Phoenix,tempe-beach-park,8,33.4308,-111.941
8378,Harborside Event Center,US,Fort Myers,FL,"Fort Myers, FL 33901",https://seatgeek.com/venues/harborside-event-center/tickets/,"Fort Myers, FL",0.0,33901,1375 Monroe Street,America/New_York,harborside-event-center,1,26.6441,-81.8722
1477,Florence Civic Center,US,Florence,SC,"Florence, SC 29501",https://seatgeek.com/venues/florence-civic-center/tickets/,"Florence, SC",0.61299,29501,3300 W. Radio Drive,America/New_York,florence-civic-center,7,34.1857,-79.8379
229,Mid America Center,US,Council Bluffs,IA,"Council Bluffs, IA 51501",https://seatgeek.com/venues/mid-america-center/tickets/,"Council Bluffs, IA",0.56953,51501,1 Arena Way,America/Chicago,mid-america-center,4,41.2371,-95.8913
160,Celebrity Theatre,US,Phoenix,AZ,"Phoenix, AZ 85008",https://seatgeek.com/venues/celebrity-theatre/tickets/,"Phoenix, AZ",0.55776,85008,440 N 32nd St,America/Phoenix,celebrity-theatre,14,33.4544,-112.015
12074,Richfield Avenue,UK,Reading,Brk,"Reading, UK",https://seatgeek.com/venues/richfield-avenue/tickets/,"Reading, UK",0.62593,RG1,Richfield Avenue,Europe/London,richfield-avenue,5,51.4643,-0.98244
47425,NDSM-werf,Netherlands,Amsterdam,NH,"Amsterdam, Netherlands",https://seatgeek.com/venues/ndsm-werf/tickets/,"Amsterdam, Netherlands",0.0,1033,Neveritaweg 15,Europe/Amsterdam,ndsm-werf,1,52.401,4.89509
6216,Auditorium Shores,US,Austin,TX,"Austin, TX 78704",https://seatgeek.com/venues/auditorium-shores/tickets/,"Austin, TX",0.55529,78704,208 Barton Springs Rd.,America/Chicago,auditorium-shores,3,30.2605,-97.7467
9950,Train,Denmark,Aarhus,070,"Aarhus, Denmark",https://seatgeek.com/venues/train/tickets/,"Aarhus, Denmark",0.0,8000,Toldbodgade 6,Europe/Copenhagen,train,18,56.1614,10.2132
1568,INTRUST Bank Arena,US,Wichita,KS,"Wichita, KS 67202",https://seatgeek.com/venues/intrust-bank-arena/tickets/,"Wichita, KS",0.68867,67202,500 East Waterman Street,America/Chicago,intrust-bank-arena,23,37.6824,-97.3321
43162,Lyon County Fairgrounds,US,Yerington,NV,"Yerington, NV 89447",https://seatgeek.com/venues/lyon-county-fairgrounds/tickets/,"Yerington, NV",0.36241,89447,100 Hwy 95A South,America/Los_Angeles,lyon-county-fairgrounds,3,38.99,-119.16
106,Soo Pass Ranch,US,Detroit Lakes,MN,"Detroit Lakes, MN 56501",https://seatgeek.com/venues/soo-pass-ranch/tickets/,"Detroit Lakes, MN",0.64201,56501,25526 Cty Hwy 22,America/Chicago,soo-pass-ranch,2,46.7737,-95.87
10446,Reid's Orchard,US,Owensboro,KY,"Owensboro, KY 42303",https://seatgeek.com/venues/reid-s-orchard/tickets/,"Owensboro, KY",0.39202,42303,4812 Kentucky 144,America/Chicago,reid-s-orchard,1,37.7993,-87.0217
178,FirstOntario Centre,Canada,Hamilton,ON,"Hamilton, Canada",https://seatgeek.com/venues/firstontario-centre/tickets/,"Hamilton, Canada",0.67536,L8R 3L4,101 York Blvd.,America/Toronto,firstontario-centre,17,43.2595,-79.8726
1159,St Leonard Fire Department,US,Saint Leonard,MD,"Saint Leonard, MD 20685",https://seatgeek.com/venues/st-leonard-fire-department/tickets/,"Saint Leonard, MD",0.58781,20685,200 Calvert Beach RD,America/New_York,st-leonard-fire-department,3,38.4729,-76.5081
676,Crawford County Fairgrounds,US,Meadville,PA,"Meadville, PA 16335",https://seatgeek.com/venues/crawford-county-fairgrounds/tickets/,"Meadville, PA",0.52292,16335,1 Hamilton Road,America/New_York,crawford-county-fairgrounds,2,41.6553,-80.1233
32961,4th Street Live,US,Louisville,KY,"Louisville, KY 40202",https://seatgeek.com/venues/4th-street-live/tickets/,"Louisville, KY",0.32671,40202,400 S 4th St,America/New_York,4th-street-live,1,38.2529,-85.7581
505,Ozark Empire Fair,US,Springfield,MO,"Springfield, MO 65803",https://seatgeek.com/venues/ozark-empire-fair/tickets/,"Springfield, MO",0.0,65803,3001 N Grant,America/Chicago,ozark-empire-fair,1,37.25,-93.3
43605,Sturgis Glencoe Camp Resort,US,Sturgis,SD,"Sturgis, SD 57785",https://seatgeek.com/venues/sturgis-glencoe-camp-resort/tickets/,"Sturgis, SD",0.0,57785,20555 Glencoe Drive,America/Denver,sturgis-glencoe-camp-resort,2,44.4181,-103.448
506,Innsbrook Pavilion,US,Glen Allen,VA,"Glen Allen, VA 23060",https://seatgeek.com/venues/innsbrook-pavilion/tickets/,"Glen Allen, VA",0.44631,23060,4901 Lake Brook Dr,America/New_York,innsbrook-pavilion,8,37.67,-77.57
2317,Indian Ranch,US,Webster,MA,"Webster, MA 01570",https://seatgeek.com/venues/indian-ranch/tickets/,"Webster, MA",0.51284,01570,200 Gore Road,America/New_York,indian-ranch,9,42.053,-71.8384
175,Oak Mountain Amphitheatre,US,Pelham,AL,"Pelham, AL 35124",https://seatgeek.com/venues/oak-mountain-amphitheatre/tickets/,"Pelham, AL",0.75887,35124,1000 Amphitheatre Dr,America/Chicago,oak-mountain-amphitheatre,6,33.3314,-86.7884
3048,Elkhart County Fairgrounds,US,Goshen,IN,"Goshen, IN 46528",https://seatgeek.com/venues/elkhart-county-fairgrounds/tickets/,"Goshen, IN",0.4648,46528,17746 County Road 34,America/Indiana/Indianapolis,elkhart-county-fairgrounds,4,41.5806,-85.8064
55308,FirstMerit Bank Event Park,US,Saginaw,MI,"Saginaw, MI 48607",https://seatgeek.com/venues/firstmerit-bank-event-park/tickets/,"Saginaw, MI",0.55376,48607,300 Johnson Street,America/New_York,firstmerit-bank-event-park,6,43.4353,-83.937
1916,Jefferson Theater,US,Charlottesville,VA,"Charlottesville, VA 22902",https://seatgeek.com/venues/jefferson-theater/tickets/,"Charlottesville, VA",0.45416,22902,110 E Main Street,America/New_York,jefferson-theater,14,38.0307,-78.4812
1253,Dutchess County Fairgrounds,US,Rhinebeck,NY,"Rhinebeck, NY 12572",https://seatgeek.com/venues/dutchess-county-fairgrounds/tickets/,"Rhinebeck, NY",0.40042,12572,6550 Spring Brook Ave,America/New_York,dutchess-county-fairgrounds,3,41.9375,-73.9057
79209,Atlantic City Oceanfront,US,Atlantic City,NJ,"Atlantic City, NJ 08401",https://seatgeek.com/venues/atlantic-city-oceanfront/tickets/,"Atlantic City, NJ",0.0,08401,Boardwalk at North Albany Avenue,America/New_York,atlantic-city-oceanfront,3,39.3651,-74.47
75,Golden Gate Park,US,San Francisco,CA,"San Francisco, CA 94102",https://seatgeek.com/venues/golden-gate-park/tickets/,"San Francisco, CA",0.82519,94102,501 Stanyan St.,America/Los_Angeles,golden-gate-park,7,37.7717,-122.455
84,Sprint Center,US,Kansas City,MO,"Kansas City, MO 64106",https://seatgeek.com/venues/sprint-center/tickets/,"Kansas City, MO",0.76102,64106,1407 Grand Boulevard,America/Chicago,sprint-center,55,39.0981,-94.5805
1543,Webster Bank Arena,US,Bridgeport,CT,"Bridgeport, CT 06604",https://seatgeek.com/venues/webster-bank-arena/tickets/,"Bridgeport, CT",0.6225,06604,600 Main Street,America/New_York,webster-bank-arena,15,41.1828,-73.181
41945,Green Park - St. Polten,Austria,St. Polten,,"St. Polten, Austria",https://seatgeek.com/venues/green-park-st-polten/tickets/,"St. Polten, Austria",0.0,3109,9 Kelsengasse,Europe/Vienna,green-park-st-polten,1,48.18,15.6234
2699,Fort Calgary,Canada,Calgary,AB,"Calgary, Canada",https://seatgeek.com/venues/fort-calgary/tickets/,"Calgary, Canada",0.56794,T2P 2M5,750 9 Avenue SE,America/Edmonton,fort-calgary,5,51.0439,-114.045
55589,Iron Works,US,Buffalo,NY,"Buffalo, NY 14203",https://seatgeek.com/venues/iron-works-1/tickets/,"Buffalo, NY",0.0,14203,49 Illinois St.,America/New_York,iron-works-1,23,42.8745,-78.8747
363,The Rex Theater,US,Pittsburgh,PA,"Pittsburgh, PA 15203",https://seatgeek.com/venues/the-rex-theater/tickets/,"Pittsburgh, PA",0.39898,15203,1602 E. Carson Street,America/New_York,the-rex-theater,15,40.4289,-79.9823
9796,Planet Trog Entertainment Complex,US,Whitehall,PA,"Whitehall, PA 18052",https://seatgeek.com/venues/planet-trog-entertainment-complex-1/tickets/,"Whitehall, PA",0.0,18052,3578 MacArthur Road,America/New_York,planet-trog-entertainment-complex-1,6,40.6628,-75.5105
53026,Amityville Music Hall,US,Amityville,NY,"Amityville, NY 11701",https://seatgeek.com/venues/amityville-music-hall/tickets/,"Amityville, NY",0.37725,11701,198 Broadway,America/New_York,amityville-music-hall,6,40.6789,-73.4174
425,Masquerade,US,Atlanta,GA,"Atlanta, GA 30308",https://seatgeek.com/venues/masquerade-1/tickets/,"Atlanta, GA",0.47037,30308,695 North Ave NE,America/New_York,masquerade-1,85,33.7709,-84.3645
8629,Tricky Falls,US,El Paso,TX,"El Paso, TX 79901",https://seatgeek.com/venues/tricky-falls/tickets/,"El Paso, TX",0.43516,79901,209 S. El Paso St.,America/Denver,tricky-falls,18,31.7571,-106.489
1022,Chain Reaction,US,Anaheim,CA,"Anaheim, CA 92801",https://seatgeek.com/venues/chain-reaction/tickets/,"Anaheim, CA",0.43885,92801,1652 W Lincoln Ave,America/Los_Angeles,chain-reaction,19,33.8325,-117.94
890,The Catalyst,US,Santa Cruz,CA,"Santa Cruz, CA 95060",https://seatgeek.com/venues/the-catalyst/tickets/,"Santa Cruz, CA",0.50404,95060,1011 Pacific Ave,America/Los_Angeles,the-catalyst,76,36.9714,-122.025
42724,Stage 112,US,Missoula,MT,"Missoula, MT 59802",https://seatgeek.com/venues/stage-112/tickets/,"Missoula, MT",0.50268,59802,112 N. Pattee Street,America/Denver,stage-112,15,46.8701,-113.994
981,Bottom Lounge,US,Chicago,IL,"Chicago, IL 60607",https://seatgeek.com/venues/bottom-lounge/tickets/,"Chicago, IL",0.47153,60607,1375 W Lake St,America/Chicago,bottom-lounge,23,41.8852,-87.6617
149,Concord Pavilion,US,Concord,CA,"Concord, CA 94521",https://seatgeek.com/venues/concord-pavilion/tickets/,"Concord, CA",0.73041,94521,2000 Kirker Pass Road,America/Los_Angeles,concord-pavilion,9,37.96,-121.94
15831,Osaka-Jo Hall,Japan,Osaka,??,"Osaka, Japan",https://seatgeek.com/venues/osaka-jo-hall/tickets/,"Osaka, Japan",0.0,,,Asia/Tokyo,osaka-jo-hall,13,34.6937,135.502
12605,Yokohama Arena,Japan,Yokohama,??,"Yokohama, Japan",https://seatgeek.com/venues/yokohama-arena/tickets/,"Yokohama, Japan",0.0,222-0033,"3-10,Shinyokohama,Kohoku-ku",Asia/Tokyo,yokohama-arena,16,35.4437,139.638
17157,Asiaworld-expo,Hong Kong,Hong Kong,Central And Western,"Hong Kong, Hong Kong",https://seatgeek.com/venues/asiaworld-expo/tickets/,"Hong Kong, Hong Kong",0.0,999077,1 Sky Plaza Road,Asia/Hong_Kong,asiaworld-expo,3,22.3148,113.938
36629,Olympic Gym,South Korea,Seoul,,"Seoul, South Korea",https://seatgeek.com/venues/olympic-gym/tickets/,"Seoul, South Korea",0.0,,,Asia/Seoul,olympic-gym,1,37.5571,126.977
30054,Impact Arena,Thailand,Bangkok,??,"Bangkok, Thailand",https://seatgeek.com/venues/impact-arena/tickets/,"Bangkok, Thailand",0.0,11120,99 Popular Road Banmai Subdistrict Pakkred District,Asia/Bangkok,impact-arena,2,13.7563,100.502
4900,Rod Laver Arena,Australia,Melbourne,Vic,"Melbourne, Australia",https://seatgeek.com/venues/rod-laver-arena/tickets/,"Melbourne, Australia",0.0,3000,Batman Avenue,Australia/Melbourne,rod-laver-arena,20,-37.8218,144.978
7183,Brisbane Entertainment Centre,Australia,Brisbane,Qld,"Brisbane, Australia",https://seatgeek.com/venues/brisbane-entertainment-centre/tickets/,"Brisbane, Australia",0.0,,210 Brunswick Street,Australia/Brisbane,brisbane-entertainment-centre,11,-27.3431,153.073
9846,Allphones Arena,Australia,Sydney,Nsw,"Sydney, Australia",https://seatgeek.com/venues/allphones-arena/tickets/,"Sydney, Australia",0.0,2127,Corner Edwin Flack Avenue and Olympic Boulevard,Australia/Sydney,allphones-arena,1,-33.8443,151.063
122,Allstate Arena,US,Rosemont,IL,"Rosemont, IL 60018",https://seatgeek.com/venues/allstate-arena/tickets/,"Rosemont, IL",0.74169,60018,6920 N. Mannheim Road,America/Chicago,allstate-arena,64,42.0049,-87.8877
123,Xcel Energy Center,US,Saint Paul,MN,"Saint Paul, MN 55102",https://seatgeek.com/venues/xcel-energy-center/tickets/,"Saint Paul, MN",0.77355,55102,199 West Kellogg Boulevard,America/Chicago,xcel-energy-center,72,44.9443,-93.101
187,Pepsi Center,US,Denver,CO,"Denver, CO 80204",https://seatgeek.com/venues/pepsi-center/tickets/,"Denver, CO",0.76455,80204,1000 Chopper Circle,America/Denver,pepsi-center,83,39.7487,-105.008
21,Fenway Park,US,Boston,MA,"Boston, MA 02215",https://seatgeek.com/venues/fenway-park/tickets/,"Boston, MA",0.89864,02215,4 Yawkey Way,America/New_York,fenway-park,42,42.3456,-71.0983
3713,Nationals Park,US,Washington,DC,"Washington, DC 20003",https://seatgeek.com/venues/nationals-park/tickets/,"Washington, DC",0.82968,20003,1500 South Capitol St.,America/New_York,nationals-park,36,38.8734,-77.0074
18,Citizens Bank Park,US,Philadelphia,PA,"Philadelphia, PA 19148",https://seatgeek.com/venues/citizens-bank-park/tickets/,"Philadelphia, PA",0.85248,19148,1 Citizens Bank Way,America/New_York,citizens-bank-park,36,39.9055,-75.1666
3,Citi Field,US,Flushing,NY,"Flushing, NY 11368",https://seatgeek.com/venues/citi-field/tickets/,"Flushing, NY",0.80472,11368,1 Roosevelt Avenue,America/New_York,citi-field,38,40.7573,-73.8443
293,Chastain Park Amphitheatre,US,Atlanta,GA,"Atlanta, GA 30342",https://seatgeek.com/venues/chastain-park-amphitheatre/tickets/,"Atlanta, GA",0.67166,30342,4469 Stella Dr NW,America/New_York,chastain-park-amphitheatre,28,33.8766,-84.396
9141,Parkview Field,US,Fort Wayne,IN,"Fort Wayne, IN 46802",https://seatgeek.com/venues/parkview-field/tickets/,"Fort Wayne, IN",0.73369,46802,1301 Ewing Street,America/Indiana/Indianapolis,parkview-field,3,41.0738,-85.1438
5572,Divots Event Center,US,Norfolk,NE,"Norfolk, NE 68701",https://seatgeek.com/venues/divots-event-center/tickets/,"Norfolk, NE",0.45865,68701,4300 WEST NORFOLK AVE,America/Chicago,divots-event-center,3,42.0325,-97.4597
143,Ak-Chin Pavilion,US,Phoenix,AZ,"Phoenix, AZ 85035",https://seatgeek.com/venues/ak-chin-pavilion/tickets/,"Phoenix, AZ",0.75102,85035,2121 N 83rd Ave,America/Phoenix,ak-chin-pavilion,22,33.4697,-112.238
661,Chene Park,US,Detroit,MI,"Detroit, MI 48207",https://seatgeek.com/venues/chene-park/tickets/,"Detroit, MI",0.48758,48207,2600 E Atwater,America/New_York,chene-park,35,42.3332,-83.0259
4271,Union Park,US,Chicago,IL,"Chicago, IL 60607",https://seatgeek.com/venues/union-park/tickets/,"Chicago, IL",0.67611,60607,1501 W Randolph St,America/Chicago,union-park,4,41.8848,-87.6653
17251,Shaw Millennium Park,Canada,Calgary,AB,"Calgary, Canada",https://seatgeek.com/venues/shaw-millennium-park/tickets/,"Calgary, Canada",0.52373,T2P 2C4,1220 9 Ave SW,America/Edmonton,shaw-millennium-park,2,51.0462,-114.091
48418,National Mall,US,Washington,DC,"Washington, DC 20301",https://seatgeek.com/venues/national-mall/tickets/,"Washington, DC",0.0,20301,900 Ohio Dr. SW,America/New_York,national-mall,1,38.8817,-77.0326
73812,Foxtail Pool,US,Las Vegas,NV,"Las Vegas, NV 89109",https://seatgeek.com/venues/foxtail-pool/tickets/,"Las Vegas, NV",0.0,89109,2535 Las Vegas Blvd South,America/Los_Angeles,foxtail-pool,29,36.1428,-115.158
1506,The Oncenter Crouse Hinds Theater,US,Syracuse,NY,"Syracuse, NY 13202",https://seatgeek.com/venues/the-oncenter-crouse-hinds-theater/tickets/,"Syracuse, NY",0.58318,13202,411 Montgomery Street,America/New_York,the-oncenter-crouse-hinds-theater,27,43.0435,-76.1476
40265,Heat Ultra Lounge,US,Anaheim,CA,"Anaheim, CA 92802",https://seatgeek.com/venues/heat-ultra-lounge/tickets/,"Anaheim, CA",0.0,92802,400 West Disney Way Suite 214,America/Los_Angeles,heat-ultra-lounge,1,33.8353,-117.915
191,The Forum,US,Inglewood,CA,"Inglewood, CA 90305",https://seatgeek.com/venues/the-forum/tickets/,"Inglewood, CA",0.82625,90305,3900 W Manchester Blvd.,America/Los_Angeles,the-forum,24,33.9582,-118.342
6113,Loggers Sports Grounds,Canada,Squamish,BC,"Squamish, Canada",https://seatgeek.com/venues/loggers-sports-grounds/tickets/,"Squamish, Canada",0.66155,V8B 0H3,39641 Loggers Lane,America/Vancouver,loggers-sports-grounds,4,49.7245,-123.141
6199,Frank Brown Park,US,Panama City Beach,FL,"Panama City Beach, FL 32413",https://seatgeek.com/venues/frank-brown-park-1/tickets/,"Panama City Beach, FL",0.53832,32413,16200 Panama City Beach Parkway,America/Chicago,frank-brown-park-1,2,30.231,-85.8763
1328,Viejas Arena,US,San Diego,CA,"San Diego, CA 92182",https://seatgeek.com/venues/viejas-arena/tickets/,"San Diego, CA",0.73185,92182,5500 Canyon Crest Drive,America/Los_Angeles,viejas-arena,10,32.7772,-117.076
130,US Airways Center,US,Phoenix,AZ,"Phoenix, AZ 85004",https://seatgeek.com/venues/us-airways-center/tickets/,"Phoenix, AZ",0.73409,85004,201 East Jefferson Street,America/Phoenix,us-airways-center,33,33.4459,-112.071
156,Tacoma Dome,US,Tacoma,WA,"Tacoma, WA 98421",https://seatgeek.com/venues/tacoma-dome/tickets/,"Tacoma, WA",0.77543,98421,2727 East D Street,America/Los_Angeles,tacoma-dome,15,47.2398,-122.432
336,Taco Bell Arena,US,Boise,ID,"Boise, ID 83725",https://seatgeek.com/venues/taco-bell-arena/tickets/,"Boise, ID",0.61137,83725,1910 University Drive,America/Boise,taco-bell-arena,15,43.6033,-116.199
33219,Olympic Hall,South Korea,Seoul,,"Seoul, South Korea",https://seatgeek.com/venues/olympic-hall/tickets/,"Seoul, South Korea",0.0,,,Asia/Seoul,olympic-hall,1,37.5571,126.977
538,9:30 Club,US,Washington,DC,"Washington, DC 20001",https://seatgeek.com/venues/9-30-club/tickets/,"Washington, DC",0.5601,20001,815 V St. NW,America/New_York,9-30-club,58,38.9178,-77.0236
70240,Sherbourne Common,Canada,Toronto,ON,"Toronto, Canada",https://seatgeek.com/venues/sherbourne-common/tickets/,"Toronto, Canada",0.0,M5A 1B6,61 Dockside Drive,America/Toronto,sherbourne-common,1,43.6449,-79.3652
849,Ogden Theatre,US,Denver,CO,"Denver, CO 80218",https://seatgeek.com/venues/ogden-theatre/tickets/,"Denver, CO",0.55966,80218,935 E Colfax Ave,America/Denver,ogden-theatre,33,39.7403,-104.975
1261,Fox Theatre,US,Boulder,CO,"Boulder, CO 80302",https://seatgeek.com/venues/fox-theatre/tickets/,"Boulder, CO",0.48031,80302,1135 13th Street,America/Denver,fox-theatre,24,40.008,-105.277
54901,Concord Music Hall,US,Chicago,IL,"Chicago, IL 60647",https://seatgeek.com/venues/concord-music-hall/tickets/,"Chicago, IL",0.52234,60647,2047 N Milwaukee Ave,America/Chicago,concord-music-hall,11,41.9187,-87.69
1025,Piedmont Park,US,Atlanta,GA,"Atlanta, GA 30306",https://seatgeek.com/venues/piedmont-park/tickets/,"Atlanta, GA",0.73848,30306,400 Park Drive,America/New_York,piedmont-park,5,33.7878,-84.3737
1899,The Observatory,US,Santa Ana,CA,"Santa Ana, CA 92704",https://seatgeek.com/venues/the-observatory-1/tickets/,"Santa Ana, CA",0.53026,92704,3503 S. Harbor Blvd.,America/Los_Angeles,the-observatory-1,68,33.7005,-117.919
1587,MetLife Stadium,US,East Rutherford,NJ,"East Rutherford, NJ 07073",https://seatgeek.com/venues/metlife-stadium/tickets/,"East Rutherford, NJ",0.95865,07073,1 MetLife Stadium Drive,America/New_York,metlife-stadium,24,40.8128,-74.0742
93,Madison Square Garden,US,New York,NY,"New York, NY 10001",https://seatgeek.com/venues/madison-square-garden/tickets/,"New York, NY",0.89891,10001,4 Pennsylvania Plaza,America/New_York,madison-square-garden,102,40.7509,-73.9943
1430,PNC Arena,US,Raleigh,NC,"Raleigh, NC 27607",https://seatgeek.com/venues/pnc-arena/tickets/,"Raleigh, NC",0.73276,27607,1400 Edwards Mill Road,America/New_York,pnc-arena,70,35.804,-78.7265
802,Wolstein Center,US,Cleveland,OH,"Cleveland, OH 44115",https://seatgeek.com/venues/wolstein-center/tickets/,"Cleveland, OH",0.6356,44115,2000 Prospect Ave,America/New_York,wolstein-center,2,41.5001,-81.6759
99,Schottenstein Center,US,Columbus,OH,"Columbus, OH 43210",https://seatgeek.com/venues/schottenstein-center/tickets/,"Columbus, OH",0.71738,43210,555 Borror Dr,America/New_York,schottenstein-center,7,40.008,-83.0249
775,Chaifetz Arena,US,St. Louis,MO,"St. Louis, MO 63103",https://seatgeek.com/venues/chaifetz-arena/tickets/,"St. Louis, MO",0.60134,63103,1 S. Compton Ave.,America/Chicago,chaifetz-arena,14,38.6325,-90.2279
48593,Monroe County Fairgrounds,US,Monroe,MI,"Monroe, MI 48161",https://seatgeek.com/venues/monroe-county-fairgrounds-1/tickets/,"Monroe, MI",0.0,48161,3775 S. CUSTER RD,America/Detroit,monroe-county-fairgrounds-1,1,41.9323,-83.4622
494,Turning Stone Casino,US,Verona,NY,"Verona, NY 13478",https://seatgeek.com/venues/turning-stone-casino/tickets/,"Verona, NY",0.58293,13478,5218 Patrick Road,America/New_York,turning-stone-casino,28,43.1135,-75.5951
197,Wolf Trap,US,Vienna,VA,"Vienna, VA 22182",https://seatgeek.com/venues/wolf-trap/tickets/,"Vienna, VA",0.61113,22182,1551 Trap Road,America/New_York,wolf-trap,36,38.9382,-77.2653
580,South Shore Music Circus,US,Cohasset,MA,"Cohasset, MA 02025",https://seatgeek.com/venues/south-shore-music-circus/tickets/,"Cohasset, MA",0.53123,02025,130 Sohier Street,America/New_York,south-shore-music-circus,16,42.24,-70.8
320,Ravinia Pavilion,US,Highland Park,IL,"Highland Park, IL 60035",https://seatgeek.com/venues/ravinia-pavilion/tickets/,"Highland Park, IL",0.67489,60035,200 Ravinia Park Rd,America/Chicago,ravinia-pavilion,40,42.1578,-87.7775
273,Starlight Theatre,US,Kansas City,MO,"Kansas City, MO 64132",https://seatgeek.com/venues/starlight-theatre/tickets/,"Kansas City, MO",0.60348,64132,4600 Starlight Rd.,America/Chicago,starlight-theatre,29,39.0083,-94.5348
7923,The Boulevard Theater,US,Las Vegas,NV,"Las Vegas, NV 89109",https://seatgeek.com/venues/the-boulevard-theater/tickets/,"Las Vegas, NV",0.56038,89109,3708 Las Vegas Boulevard South,America/Los_Angeles,the-boulevard-theater,10,36.1083,-115.173
102,Rushmore Plaza Civic Center,US,Rapid City,SD,"Rapid City, SD 57701",https://seatgeek.com/venues/rushmore-plaza-civic-center/tickets/,"Rapid City, SD",0.55482,57701,444 Mt. Rushmore Road North,America/Denver,rushmore-plaza-civic-center,3,44.0822,-103.231
1297,James Brown Arena,US,Augusta,GA,"Augusta, GA 30901",https://seatgeek.com/venues/james-brown-arena-1/tickets/,"Augusta, GA",0.66152,30901,601 7th Street,America/New_York,james-brown-arena-1,2,33.4692,-81.966
1565,Crown Complex,US,Fayetteville,NC,"Fayetteville, NC 28306",https://seatgeek.com/venues/crown-complex/tickets/,"Fayetteville, NC",0.62273,28306,1960 Coliseum Drive,America/New_York,crown-complex,14,35.0152,-78.8936
1808,Von Braun Center Arena,US,Huntsville,AL,"Huntsville, AL 35801",https://seatgeek.com/venues/von-braun-center-arena/tickets/,"Huntsville, AL",0.60937,35801,700 Monroe St.,America/Chicago,von-braun-center-arena,16,34.7273,-86.5903
95,i wireless Center,US,Moline,IL,"Moline, IL 61265",https://seatgeek.com/venues/i-wireless-center/tickets/,"Moline, IL",0.71629,61265,1201 River Dr.,America/Chicago,i-wireless-center,14,41.5067,-90.5151
6966,Power Plant Live,US,Baltimore,MD,"Baltimore, MD 21202",https://seatgeek.com/venues/power-plant-live/tickets/,"Baltimore, MD",0.50542,21202,34 Market Place,America/New_York,power-plant-live,5,39.2889,-76.6072
38866,Iron City,US,Birmingham,AL,"Birmingham, AL 35233",https://seatgeek.com/venues/iron-city/tickets/,"Birmingham, AL",0.50263,35233,513 22nd St S,America/Chicago,iron-city,24,33.5089,-86.7979
1115,Music Farm,US,Charleston,SC,"Charleston, SC 29403",https://seatgeek.com/venues/music-farm/tickets/,"Charleston, SC",0.4965,29403,32 Ann Street,America/New_York,music-farm,25,32.7761,-79.933
8651,Bottle & Cork,US,Dewey Beach,DE,"Dewey Beach, DE 19971",https://seatgeek.com/venues/bottle-cork/tickets/,"Dewey Beach, DE",0.54551,19971,1807 Highway 1,America/New_York,bottle-cork,17,38.7,-75.08
52437,District Square,US,Kalamazoo,MI,"Kalamazoo, MI 49007",https://seatgeek.com/venues/district-square/tickets/,"Kalamazoo, MI",0.37039,49007,300 E Michigan Ave,America/New_York,district-square,6,42.2924,-85.5801
57671,Mercury Ballroom,US,Louisville,KY,"Louisville, KY 40202",https://seatgeek.com/venues/mercury-ballroom/tickets/,"Louisville, KY",0.51727,40202,611 S. 4th Street,America/Kentucky/Louisville,mercury-ballroom,23,38.2485,-85.7579
8011,Palais Theatre,Australia,St Kilda,??,"St Kilda, Australia",https://seatgeek.com/venues/palais-theatre/tickets/,"St Kilda, Australia",0.0,3182,14 Lower Esplanade,Australia/Melbourne,palais-theatre,17,-37.8669,144.975
5059,State Theatre,Australia,Sydney,New South Wales,"Sydney, Australia",https://seatgeek.com/venues/state-theatre-32/tickets/,"Sydney, Australia",0.0,2000,49 Market St,Australia/Sydney,state-theatre-32,8,-33.871,151.207
63915,Toyenparken,Norway,Oslo,,"Oslo, Norway",https://seatgeek.com/venues/toyenparken/tickets/,"Oslo, Norway",0.0,0563,Toyen Parken,Europe/Oslo,toyenparken,5,59.9191,10.7787
9667,Stradbally Hall,Ireland,Stradbally,Laoighis,"Stradbally, Ireland",https://seatgeek.com/venues/stradbally-hall/tickets/,"Stradbally, Ireland",0.0,STRADBALLY,Stradbally,Europe/Dublin,stradbally-hall,2,53.0163,-7.14741
3536,Odyssey Arena,UK,Belfast,Ant,"Belfast, UK",https://seatgeek.com/venues/odyssey-arena/tickets/,"Belfast, UK",0.45969,BT3 9QQ,2 Queens Quay,Europe/London,odyssey-arena,30,54.6016,-5.9184
5118,Idaho Center,US,Nampa,ID,"Nampa, ID 83687",https://seatgeek.com/venues/idaho-center/tickets/,"Nampa, ID",0.59423,83687,16200 Idaho Center Blvd.,America/Denver,idaho-center,7,43.6081,-116.508
3243,Xs The Nightclub At Encore,US,Las Vegas,NV,"Las Vegas, NV 89109",https://seatgeek.com/venues/xs-the-nightclub-at-encore/tickets/,"Las Vegas, NV",0.52725,89109,3131 Las Vegas Blvd. South,America/Los_Angeles,xs-the-nightclub-at-encore,117,36.1274,-115.168
8719,Encore Beach Club,US,Las Vegas,NV,"Las Vegas, NV 89109",https://seatgeek.com/venues/encore-beach-club/tickets/,"Las Vegas, NV",0.51931,89109,3100 Las Vegas Blvd South,America/Los_Angeles,encore-beach-club,29,36.1311,-115.166
10114,Raketenbasis Pydna,Germany,Kastellaun,Rhineland-palatinate,"Kastellaun, Germany",https://seatgeek.com/venues/raketenbasis-pydna/tickets/,"Kastellaun, Germany",0.0,56288,,Europe/Berlin,raketenbasis-pydna,3,50.0714,7.44513
1325,Bill Graham Civic Auditorium,US,San Francisco,CA,"San Francisco, CA 94102",https://seatgeek.com/venues/bill-graham-civic-auditorium/tickets/,"San Francisco, CA",0.74622,94102,99 Grove Street,America/Los_Angeles,bill-graham-civic-auditorium,8,37.7785,-122.418
1862,The Grammy Museum,US,Los Angeles,CA,"Los Angeles, CA 90015",https://seatgeek.com/venues/the-grammy-museum/tickets/,"Los Angeles, CA",0.464,90015,800 W. Olympic Blvd.,America/Los_Angeles,the-grammy-museum,138,34.045,-118.264
305,Billy Bob's Texas,US,Fort Worth,TX,"Fort Worth, TX 76106",https://seatgeek.com/venues/billy-bob-s-texas/tickets/,"Fort Worth, TX",0.53528,76106,2520 Rodeo Plaza,America/Chicago,billy-bob-s-texas,24,32.7911,-97.3478
812,Allegan County Fair,US,Allegan,MI,"Allegan, MI 49010",https://seatgeek.com/venues/allegan-county-fair/tickets/,"Allegan, MI",0.65898,49010,150 Allegan County Fair Dr.,America/New_York,allegan-county-fair,3,42.535,-85.8583
535,York Fair,US,York,PA,"York, PA 17404",https://seatgeek.com/venues/york-fair/tickets/,"York, PA",0.62179,17404,334 Carlisle Avenue,America/New_York,york-fair,4,39.9588,-76.7519
103,North Dakota State Fair,US,Minot,ND,"Minot, ND 58702",https://seatgeek.com/venues/north-dakota-state-fair/tickets/,"Minot, ND",0.4975,58702,2005 Burdick Expressway East,America/Chicago,north-dakota-state-fair,4,48.2314,-101.264
101,Cheyenne Frontier Days,US,Cheyenne,WY,"Cheyenne, WY 82001",https://seatgeek.com/venues/cheyenne-frontier-days/tickets/,"Cheyenne, WY",0.6318,82001,4610 Carey Ave.,America/Denver,cheyenne-frontier-days,13,41.1581,-104.834
1230,WinStar World Casino,US,Thackerville,OK,"Thackerville, OK 73459",https://seatgeek.com/venues/winstar-world-casino/tickets/,"Thackerville, OK",0.64177,73459,777 Casino Ave.,America/Chicago,winstar-world-casino,25,33.7578,-97.1325
248,Minnesota State Fair Grandstand,US,Saint Paul,MN,"Saint Paul, MN 55108",https://seatgeek.com/venues/minnesota-state-fair-grandstand/tickets/,"Saint Paul, MN",0.70975,55108,1265 Snelling Ave.,America/Chicago,minnesota-state-fair-grandstand,13,44.9812,-93.167
3416,Comerica Theatre,US,Phoenix,AZ,"Phoenix, AZ 85003",https://seatgeek.com/venues/comerica-theatre/tickets/,"Phoenix, AZ",0.67397,85003,400 West Washington Street,America/Phoenix,comerica-theatre,25,33.4488,-112.08
10181,The Art Bar,UK,Oxford,Oxf,"Oxford, UK",https://seatgeek.com/venues/the-art-bar-1/tickets/,"Oxford, UK",0.0,OX4 1UE,162 Cowley Road,Europe/London,the-art-bar-1,15,51.7472,-1.23524
4065,Del Mar Fairgrounds,US,Del Mar,CA,"Del Mar, CA 92014",https://seatgeek.com/venues/del-mar-fairgrounds/tickets/,"Del Mar, CA",0.56674,92014,2260 Jimmy Durante Blvd.,America/Los_Angeles,del-mar-fairgrounds,15,32.9738,-117.257
13629,San Jose Improv,US,San Jose,CA,"San Jose, CA 95113",https://seatgeek.com/venues/san-jose-improv/tickets/,"San Jose, CA",0.0,95113,62 S. Second Street,America/Los_Angeles,san-jose-improv,62,37.3356,-121.888
30265,Akasaka Blitz,Japan,Minato-ku,13,"Minato-ku, Japan",https://seatgeek.com/venues/akasaka-blitz/tickets/,"Minato-ku, Japan",0.0,107-0052,"5-3-2,Akasaka",Asia/Tokyo,akasaka-blitz,1,35.6581,139.752
568,The Fillmore Charlotte,US,Charlotte,NC,"Charlotte, NC 28206",https://seatgeek.com/venues/the-fillmore-charlotte/tickets/,"Charlotte, NC",0.54226,28206,1000 Seaboard Street,America/New_York,the-fillmore-charlotte,33,35.2392,-80.8457
2184,MCU Park,US,Brooklyn,NY,"Brooklyn, NY 11224",https://seatgeek.com/venues/mcu-park/tickets/,"Brooklyn, NY",0.59822,11224,1904 Surf Ave,America/New_York,mcu-park,18,40.5748,-73.9844
36693,Russell Industrial Center,US,Detroit,MI,"Detroit, MI 48211",https://seatgeek.com/venues/russell-industrial-center/tickets/,"Detroit, MI",0.0,48211,1600 Clay Street,America/Detroit,russell-industrial-center,1,42.3783,-83.0605
9895,Ascarate Park,US,El Paso,TX,"El Paso, TX 79905",https://seatgeek.com/venues/ascarate-park/tickets/,"El Paso, TX",0.58298,79905,6900 Delta Dr,America/Denver,ascarate-park,2,31.754,-106.407
909,Avila Beach Resort,US,Avila Beach,CA,"Avila Beach, CA 93424",https://seatgeek.com/venues/avila-beach-resort/tickets/,"Avila Beach, CA",0.4964,93424,6464 Ana Bay Rd,America/Los_Angeles,avila-beach-resort,4,35.1814,-120.704
61258,Buffalo County Fairgrounds,US,Kearney,NE,"Kearney, NE 68847",https://seatgeek.com/venues/buffalo-county-fairgrounds/tickets/,"Kearney, NE",0.0,68847,3807 Avenue N,America/Chicago,buffalo-county-fairgrounds,1,40.7114,-99.0615
8307,Track 29,US,Chattanooga,TN,"Chattanooga, TN 37402",https://seatgeek.com/venues/track-29/tickets/,"Chattanooga, TN",0.49173,37402,1400 Market Street,America/New_York,track-29,15,35.0369,-85.3074
78348,Belterra Park Gaming & Entertainment Center,US,Cincinnati,OH,"Cincinnati, OH 45230",https://seatgeek.com/venues/belterra-park-gaming-entertainment-center/tickets/,"Cincinnati, OH",0.0,45230,6301 Kellogg Rd,America/New_York,belterra-park-gaming-entertainment-center,3,39.0662,-84.3755
109,Freedom Hall,US,Louisville,KY,"Louisville, KY 40209",https://seatgeek.com/venues/freedom-hall/tickets/,"Louisville, KY",0.64995,40209,937 Phillips Lane,America/Kentucky/Louisville,freedom-hall,18,38.1911,-85.7484
832,Pennysaver Amphitheater,US,Farmingville,NY,"Farmingville, NY 11738",https://seatgeek.com/venues/pennysaver-amphitheater/tickets/,"Farmingville, NY",0.62494,11738,55 South Bicycle Path,America/New_York,pennysaver-amphitheater,3,40.84,-73.02
2742,University at Buffalo Stadium,US,Buffalo,NY,"Buffalo, NY 14260",https://seatgeek.com/venues/university-at-buffalo-stadium/tickets/,"Buffalo, NY",0.46889,14260,108 Alumni Arena,America/New_York,university-at-buffalo-stadium,5,42.9991,-78.778
3212,Straz Center Ferguson Hall,US,Tampa,FL,"Tampa, FL 33602",https://seatgeek.com/venues/straz-center-ferguson-hall/tickets/,"Tampa, FL",0.49575,33602,1010 North W.C. MacInnes Place,America/New_York,straz-center-ferguson-hall,11,27.9516,-82.4639
37304,Champions Square,US,New Orleans,LA,"New Orleans, LA 70112",https://seatgeek.com/venues/champions-square/tickets/,"New Orleans, LA",0.64342,70112,1 Lasalle Street,America/Chicago,champions-square,10,29.9459,-90.0819
10413,Clapham Common,UK,London,Lbh,"London, UK",https://seatgeek.com/venues/clapham-common/tickets/,"London, UK",0.62856,SW4 9DE,Windmill Drive,Europe/London,clapham-common,2,51.4599,-0.14392
41720,Dubuque County Fair,US,Dubuque,IA,"Dubuque, IA 52002",https://seatgeek.com/venues/dubuque-county-fair/tickets/,"Dubuque, IA",0.0,52002,14569 Old Highway Road,America/Chicago,dubuque-county-fair,7,42.4848,-90.8042
3227,Motorpoint Arena Cardiff,UK,Cardiff,Cardiff,"Cardiff, UK",https://seatgeek.com/venues/motorpoint-arena-cardiff-2/tickets/,"Cardiff, UK",0.51299,CF10 2EQ,Mary Ann Street,Europe/London,motorpoint-arena-cardiff-2,33,51.4971,-3.18135
39216,The SSE Hydro,UK,Glasgow,Glg,"Glasgow, UK",https://seatgeek.com/venues/the-sse-hydro/tickets/,"Glasgow, UK",0.58984,G3 8YW,1 EXHIBITION WAY,Europe/London,the-sse-hydro,63,55.8599,-4.2833
3624,NIA Academy,UK,Birmingham,Warwickshire,"Birmingham, UK",https://seatgeek.com/venues/nia-academy/tickets/,"Birmingham, UK",0.58026,B1,King Edwards Road,Europe/London,nia-academy,48,52.4831,-1.92006
3309,Bournemouth International Centre,UK,Bournemouth,Bmh,"Bournemouth, UK",https://seatgeek.com/venues/bournemouth-international-centre/tickets/,"Bournemouth, UK",0.50564,BH2 5BH,Exeter Road,Europe/London,bournemouth-international-centre,35,50.7204,-1.88091
3324,Brighton Centre,UK,Brighton,Bnh,"Brighton, UK",https://seatgeek.com/venues/brighton-centre/tickets/,"Brighton, UK",0.51615,BN1 2GR,15 Kings Parade,Europe/London,brighton-centre,38,50.8203,-0.14274
554,House of Blues San Diego,US,San Diego,CA,"San Diego, CA 92101",https://seatgeek.com/venues/house-of-blues-san-diego/tickets/,"San Diego, CA",0.51136,92101,1055 5th Avenue,America/Los_Angeles,house-of-blues-san-diego,64,32.7164,-117.16
9982,Custom House Square,UK,Belfast,Ant,"Belfast, UK",https://seatgeek.com/venues/custom-house-square/tickets/,"Belfast, UK",0.41213,BT1 2,Custom House Square,Europe/London,custom-house-square,7,54.6015,-5.92367
725,Sound Academy,Canada,Toronto,ON,"Toronto, Canada",https://seatgeek.com/venues/sound-academy/tickets/,"Toronto, Canada",0.57726,M5A 1A4,11 Polson Street,America/Toronto,sound-academy,9,43.6408,-79.3546
434,Hammerstein Ballroom,US,New York,NY,"New York, NY 10001",https://seatgeek.com/venues/hammerstein-ballroom/tickets/,"New York, NY",0.68266,10001,311 West 34th Street,America/New_York,hammerstein-ballroom,6,40.7524,-73.9939
593,Iowa State Fair,US,Des Moines,IA,"Des Moines, IA 50317",https://seatgeek.com/venues/iowa-state-fair/tickets/,"Des Moines, IA",0.64632,50317,3000 E Grand Ave,America/Chicago,iowa-state-fair,11,41.5956,-93.5546
